City_ID,City,Lat,Lng,Max Temp,Humidity,Cloudiness,Wind Speed,Country,Date
0,vestmannaeyjar,63.4427,-20.2734,8.55,93,100,8.23,IS,1680280883
1,salalah,17.0151,54.0924,28.05,69,0,3.09,OM,1680280851
2,albany,42.6001,-73.9662,8.83,40,99,0.89,US,1680280786
3,jamestown,42.097,-79.2353,4.45,92,100,4.63,US,1680280689
4,port blair,11.6667,92.75,26.68,80,92,2.66,IN,1680280879
5,laguna,38.421,-121.4238,12.41,72,20,1.79,US,1680280910
6,sainte-maxime,43.3,6.6333,23.01,69,64,9.81,FR,1680280910
7,lebu,-37.6167,-73.65,16.41,55,7,4.47,CL,1680280856
8,nanortalik,60.1432,-45.2371,-1.48,77,63,2.94,GL,1680280892
9,longyearbyen,78.2186,15.6401,-10.09,79,75,5.66,SJ,1680280879
10,rikitea,-23.1203,-134.9692,25.98,76,88,3.05,PF,1680280843
11,klyuchi,52.2667,79.1667,-5.16,62,13,4.25,RU,1680280911
12,nuuk,64.1835,-51.7216,-5.66,58,0,7.72,GL,1680280856
13,touros,-5.1989,-35.4608,28.9,63,84,6.16,BR,1680280911
14,carnarvon,-24.8667,113.6333,23.37,71,89,3.25,AU,1680280866
15,barrow,71.2906,-156.7887,-15.99,92,100,2.06,US,1680280849
16,sandwick,60.0,-1.25,6.9,65,75,5.14,GB,1680280911
17,port elizabeth,-33.918,25.5701,19.16,79,0,3.6,ZA,1680280894
18,mataura,-46.1927,168.8643,7.76,99,94,1.39,NZ,1680280852
19,hargeysa,9.56,44.065,23.45,69,89,3.01,SO,1680280911
20,chapais,49.7834,-74.8492,-2.12,80,100,3.15,CA,1680280912
21,kapaa,22.0752,-159.319,22.99,94,100,0.0,US,1680280847
22,san policarpo,12.1791,125.5072,26.53,83,64,3.39,PH,1680280912
23,zomin,39.9606,68.3958,17.9,52,93,1.78,UZ,1680280912
24,hami,42.8,93.45,14.15,25,92,6.66,CN,1680280912
25,avarua,-21.2078,-159.775,24.03,100,88,0.51,CK,1680280854
26,lamar,33.6668,-95.5836,25.55,91,100,10.29,US,1680280913
27,nokaneng,-19.6667,22.2667,27.89,29,17,1.02,BW,1680280913
28,marang,5.2056,103.2059,26.95,81,95,0.55,MY,1680280913
29,nikolskoye,59.7035,30.7861,0.94,99,100,2.3,RU,1680280859
30,bluff,-46.6,168.3333,9.98,91,85,3.2,NZ,1680280851
31,hvide sande,56.0045,8.1294,8.38,84,100,5.81,DK,1680280913
32,caravelas,-17.7125,-39.2481,30.18,56,43,4.39,BR,1680280888
33,tuatapere,-46.1333,167.6833,9.69,93,98,2.65,NZ,1680280913
34,digri,25.1558,69.1113,26.56,46,66,6.65,PK,1680280913
35,ushuaia,-54.8,-68.3,8.81,61,20,1.54,AR,1680280843
36,shingu,33.7333,135.9833,11.1,82,89,2.09,JP,1680280913
37,oyama,36.3,139.8,15.88,66,0,1.41,JP,1680280913
38,livny,52.4253,37.6069,0.98,98,100,2.46,RU,1680280913
39,finnsnes,69.2296,17.9811,0.34,76,41,1.62,NO,1680280913
40,teya,60.3778,92.6267,-23.31,100,72,0.66,RU,1680280848
41,codrington,-38.2667,141.9667,12.29,61,100,4.95,AU,1680280855
42,gunjur,13.2019,-16.7339,30.04,58,75,3.09,GM,1680280914
43,mapiripan,2.8892,-72.1256,34.16,38,95,3.68,CO,1680280914
44,los llanos de aridane,28.6585,-17.9182,26.86,28,0,6.69,ES,1680280914
45,bathsheba,13.2167,-59.5167,31.34,58,40,11.32,BB,1680280855
46,ribeira grande,38.5167,-28.7,18.22,88,40,5.81,PT,1680280857
47,hithadhoo,-0.6,73.0833,28.26,72,12,2.21,MV,1680280914
48,new norfolk,-42.7826,147.0587,8.29,67,20,0.45,AU,1680280852
49,klaksvik,62.2266,-6.589,7.51,87,100,11.03,FO,1680280844
50,tasiilaq,65.6145,-37.6368,1.09,70,100,0.73,GL,1680280846
51,qom,34.6401,50.8764,18.01,37,70,5.78,IR,1680280915
52,maxixe,-23.8597,35.3472,23.07,80,83,2.66,MZ,1680280915
53,fare,-16.7,-151.0167,27.67,70,67,3.33,PF,1680280861
54,narsaq,60.9167,-46.05,2.12,52,13,1.0,GL,1680280862
55,ondjiva,-17.0667,15.7333,25.5,49,99,3.14,AO,1680280915
56,jertih,5.7336,102.4897,23.13,91,90,1.77,MY,1680280915
57,nanao,37.05,136.9667,9.61,91,0,1.96,JP,1680280749
58,hobart,-42.8794,147.3294,9.03,72,40,3.09,AU,1680280630
59,cherskiy,68.75,161.3,-5.5,97,100,0.59,RU,1680280879
60,port hedland,-20.3167,118.5667,27.03,89,40,2.06,AU,1680280856
61,kosh-agach,50.0,88.6667,-16.48,67,58,2.92,RU,1680280916
62,punta arenas,-53.15,-70.9167,10.01,57,0,15.95,CL,1680280839
63,sorland,67.667,12.6934,2.92,60,70,10.22,NO,1680280916
64,chokurdakh,70.6333,147.9167,-22.36,96,100,4.55,RU,1680280880
65,atuona,-9.8,-139.0333,26.99,75,71,7.74,PF,1680280885
66,the valley,18.217,-63.0578,28.92,57,20,7.2,AI,1680280916
67,genhe,50.7833,121.5167,-1.89,91,0,1.5,CN,1680280916
68,saint-philippe,-21.3585,55.7679,26.77,87,47,5.46,RE,1680280848
69,bredasdorp,-34.5322,20.0403,18.3,72,7,2.62,ZA,1680280916
70,marawi,7.9986,124.2928,20.35,95,99,0.36,PH,1680280916
71,palmer,42.1584,-72.3287,10.48,33,75,3.6,US,1680280916
72,buchanan,5.8808,-10.0467,28.81,72,68,4.72,LR,1680280500
73,suileng,47.25,127.0833,8.86,48,1,4.27,CN,1680280917
74,panguna,-6.3164,155.4848,20.41,96,100,1.21,PG,1680280917
75,axim,4.8699,-2.2405,28.06,75,100,4.33,GH,1680280851
76,cape town,-33.9258,18.4232,19.5,75,0,8.75,ZA,1680280746
77,puerto ayora,-0.7393,-90.3518,30.98,89,42,1.79,EC,1680280620
78,pisco,-13.7,-76.2167,26.03,73,0,4.63,PE,1680280917
79,chatra,24.2167,84.8667,22.04,64,82,1.73,IN,1680280462
80,jalu,29.0331,21.5482,20.84,20,0,2.17,LY,1680280893
81,sur,22.5667,59.5289,27.19,42,1,3.47,OM,1680280917
82,leh,34.1667,77.5833,-1.38,84,98,1.87,IN,1680280870
83,petrovsk-zabaykalskiy,51.273,108.843,-7.7,73,99,4.24,RU,1680280918
84,beringovskiy,63.05,179.3167,-13.99,88,7,4.01,RU,1680280918
85,wyndham,37.6985,-77.6125,19.01,59,0,6.69,US,1680280918
86,forestville,38.8451,-76.875,16.2,67,40,6.17,US,1680280918
87,channel-port aux basques,47.5702,-59.1367,1.08,71,48,3.07,CA,1680280918
88,sao filipe,14.8961,-24.4956,24.74,69,57,3.62,CV,1680280918
89,ibra,22.6906,58.5334,28.24,13,0,2.25,OM,1680280918
90,namibe,-15.1961,12.1522,24.14,79,90,4.38,AO,1680280853
91,castro,-24.7911,-50.0119,25.06,60,3,3.3,BR,1680280854
92,arman,59.7,150.1667,-2.21,96,100,2.09,RU,1680280918
93,upernavik,72.7868,-56.1549,-24.28,85,3,3.73,GL,1680280888
94,georgetown,5.4112,100.3354,29.97,76,20,2.57,MY,1680280491
95,saldanha,-33.0117,17.9442,17.25,83,22,7.84,ZA,1680280426
96,gien,47.6933,2.6309,13.08,81,99,10.17,FR,1680280919
97,busselton,-33.65,115.3333,17.8,64,92,6.77,AU,1680280848
98,shorkot,31.9099,70.8774,18.34,71,23,3.44,PK,1680280919
99,nemuro,43.3236,145.575,2.49,96,94,3.88,JP,1680280909
100,hilo,19.7297,-155.09,21.81,93,100,2.57,US,1680280818
101,luderitz,-26.6481,15.1594,18.47,73,65,2.64,NA,1680280851
102,faanui,-16.4833,-151.75,27.72,73,59,3.49,PF,1680280853
103,manggar,-2.8833,108.2667,25.99,78,100,0.91,ID,1680280919
104,lata,40.1629,-8.3327,17.73,55,100,3.96,PT,1680280919
105,khotyn,48.4833,26.5,9.66,78,91,2.69,UA,1680280919
106,meulaboh,4.1363,96.1285,25.43,87,92,1.32,ID,1680280911
107,grindavik,63.8424,-22.4338,8.97,100,100,2.06,IS,1680280920
108,yar-sale,66.8333,70.8333,-2.67,83,100,11.36,RU,1680280866
109,atar,20.5169,-13.0499,36.23,3,0,9.45,MR,1680280920
110,bucerias,20.75,-105.3333,22.99,56,75,1.54,MX,1680280920
111,mayumba,-3.432,10.6554,27.73,76,60,3.29,GA,1680280920
112,yellowknife,62.456,-114.3525,-20.71,65,40,4.63,CA,1680280630
113,bima,-8.4667,118.7167,24.74,93,100,1.24,ID,1680280920
114,porto velho,-8.7619,-63.9039,31.03,58,20,2.06,BR,1680280920
115,ornskoldsvik,63.2909,18.7153,3.53,44,0,4.12,SE,1680280867
116,tigzirt,36.8886,4.1198,20.12,58,48,2.42,DZ,1680280920
117,kahului,20.8947,-156.47,22.69,88,20,3.6,US,1680280855
118,ponte nova,-20.4164,-42.9086,28.97,46,80,2.11,BR,1680280920
119,karatau,43.1667,70.4667,6.96,31,0,7.55,KZ,1680280921
120,linxia,35.6003,103.2064,10.45,43,1,0.98,CN,1680280921
121,vaini,-21.2,-175.2,23.09,100,20,2.57,TO,1680280848
122,awbari,26.5921,12.7805,24.21,10,0,3.42,LY,1680280850
123,constitucion,-35.3333,-72.4167,21.43,43,0,5.4,CL,1680280860
124,roald,62.5833,6.1333,9.51,49,0,8.75,NO,1680280915
125,padang,-0.9492,100.3543,25.25,86,100,1.43,ID,1680280921
126,arraial do cabo,-22.9661,-42.0278,30.98,70,0,4.63,BR,1680280865
127,mulege,26.8833,-111.9833,17.82,51,19,4.66,MX,1680280922
128,cabedelo,-6.9811,-34.8339,31.37,62,26,5.29,BR,1680280923
129,butaritari,3.0707,172.7902,27.14,80,100,3.36,KI,1680280846
130,montepuez,-13.1256,38.9997,21.29,98,100,1.62,MZ,1680280923
131,khatanga,71.9667,102.5,-22.77,97,84,5.33,RU,1680280883
132,bolu,40.6667,31.5833,3.35,87,100,1.63,TR,1680280924
133,vanimo,-2.6741,141.3028,25.05,89,99,0.66,PG,1680280924
134,alghero,40.5589,8.3181,17.05,82,40,3.6,IT,1680280925
135,pemberton,50.3164,-122.8027,6.0,75,100,2.76,CA,1680280925
136,pevek,69.7008,170.3133,-10.3,77,100,4.91,RU,1680280926
137,dzhebariki-khaya,62.2167,135.8,-5.53,96,100,2.51,RU,1680280926
138,uruacu,-14.5247,-49.1408,32.82,39,1,1.11,BR,1680280926
139,hovd,48.0056,91.6419,-9.52,44,61,4.7,MN,1680280926
140,praya,14.9215,-23.5087,29.3,48,0,6.17,CV,1680280883
141,bracebridge,45.0334,-79.3163,1.04,93,100,6.69,CA,1680280927
142,tahoua,14.8888,5.2692,36.99,5,31,1.03,NE,1680280927
143,talnakh,69.4865,88.3972,-19.89,97,97,5.33,RU,1680280895
144,winchester,51.0651,-1.3187,11.76,83,75,10.8,GB,1680280918
145,shihezi,44.3,86.0333,4.6,44,100,6.61,CN,1680280746
146,paracuru,-3.41,-39.0306,28.39,75,54,4.37,BR,1680280927
147,kaitangata,-46.2817,169.8464,11.63,95,63,1.13,NZ,1680280855
148,dikson,73.5069,80.5464,-12.96,92,100,11.79,RU,1680280875
149,elmira,42.0898,-76.8077,7.51,58,100,1.54,US,1680280911
150,zhigansk,66.7697,123.3711,-27.85,98,23,3.87,RU,1680280928
151,quatre cocos,-20.2078,57.7625,27.06,82,12,5.26,MU,1680280882
152,bogorodskoye,56.55,37.8833,1.38,99,100,1.93,RU,1680280929
153,bandarbeyla,9.4942,50.8122,27.47,72,2,4.32,SO,1680280857
154,qaanaaq,77.484,-69.3632,-22.5,73,19,1.45,GL,1680280853
155,bubaque,11.2833,-15.8333,25.9,72,17,5.95,GW,1680280845
156,jadu,31.953,12.0261,22.88,13,3,2.8,LY,1680280930
157,plouzane,48.3833,-4.6167,12.1,79,100,10.8,FR,1680280930
158,diplo,24.4667,69.584,27.4,43,73,7.89,PK,1680280930
159,mahebourg,-20.4081,57.7,27.16,83,40,5.14,MU,1680280845
160,misratah,32.3754,15.0925,20.45,48,3,4.93,LY,1680280931
161,norman wells,65.282,-126.8329,-10.98,67,75,10.29,CA,1680280766
162,kashmor,28.4333,69.5833,24.37,47,5,5.21,PK,1680280931
163,hermanus,-34.4187,19.2345,20.45,76,40,3.53,ZA,1680280845
164,kavieng,-2.5744,150.7967,27.1,75,94,1.59,PG,1680280854
165,port alfred,-33.5906,26.891,17.88,82,100,0.45,ZA,1680280850
166,tautira,-17.7333,-149.15,27.21,75,91,3.83,PF,1680280932
167,thompson,55.7435,-97.8558,-9.91,48,75,3.09,CA,1680280608
168,clyde river,70.4692,-68.5914,-17.87,78,100,6.69,CA,1680280813
169,ponta do sol,32.6667,-17.1,25.07,46,0,2.91,PT,1680280850
170,kaseda,31.4167,130.3167,14.91,77,62,4.87,JP,1680280933
171,carthage,36.8611,10.3316,25.74,29,20,3.09,TN,1680280933
172,barcelona,41.3888,2.159,25.66,69,20,7.2,ES,1680280794
173,meadow lake,34.8014,-106.5436,8.71,32,0,10.28,US,1680280933
174,sagua la grande,22.8067,-80.0756,27.55,55,26,7.81,CU,1680280934
175,humberto de campos,-2.5983,-43.4611,28.85,72,92,3.58,BR,1680280934
176,tampakan,6.4442,124.9264,23.9,94,100,0.62,PH,1680280934
177,omsukchan,62.5333,155.8,-9.81,86,100,1.51,RU,1680280935
178,argentan,48.75,-0.0167,10.09,80,95,10.59,FR,1680280935
179,nabire,-3.3667,135.4833,24.18,90,87,1.4,ID,1680280935
180,taunggyi,20.7833,97.0333,18.25,44,0,0.86,MM,1680280936
181,acapulco,16.8634,-99.8901,29.9,54,40,1.54,MX,1680280936
182,kattivakkam,13.2167,80.3167,29.05,86,5,5.55,IN,1680280936
183,riyadh,24.6877,46.7219,25.08,23,5,11.83,SA,1680280519
184,yulara,-25.2406,130.9889,16.93,67,100,7.12,AU,1680280936
185,tarakan,3.3,117.6333,27.04,76,97,0.83,ID,1680280937
186,rio gallegos,-51.6226,-69.2181,11.03,35,0,3.09,AR,1680280937
187,jardim,-21.4803,-56.1381,33.1,48,2,1.52,BR,1680280938
188,provideniya,64.3833,-173.3,-16.49,91,21,2.98,RU,1680280859
189,udachnyy,66.4167,112.4,-30.48,100,94,2.38,RU,1680280745
190,tiarei,-17.5333,-149.3333,25.01,75,92,2.98,PF,1680280938
191,myanaung,18.2833,95.3167,27.42,60,6,0.91,MM,1680280938
192,mauguio,43.6181,4.0074,19.94,41,23,9.77,FR,1680280938
193,saskylakh,71.9167,114.0833,-19.62,94,97,6.35,RU,1680280855
194,cockburn town,21.4612,-71.1419,26.98,54,40,7.2,TC,1680280939
195,itarema,-2.9248,-39.9167,28.21,74,40,4.76,BR,1680280881
196,pemangkat,1.1667,108.9667,24.49,89,100,2.52,ID,1680280939
197,ancud,-41.8697,-73.8203,13.44,53,100,1.9,CL,1680280939
198,torbay,47.6666,-52.7314,2.38,75,20,3.6,CA,1680280551
199,lorengau,-2.0226,147.2712,26.8,81,97,3.32,PG,1680280940
200,mirskoy,45.5439,40.3998,4.36,75,52,4.64,RU,1680280940
201,korla,41.7597,86.1469,14.32,27,98,3.49,CN,1680280748
202,cahors,44.4167,1.3333,11.78,71,23,7.39,FR,1680280940
203,bambous virieux,-20.3428,57.7575,27.14,83,40,5.14,MU,1680280878
204,port hardy,50.6996,-127.4199,6.0,87,100,6.69,CA,1680280941
205,osakarovka,50.565,72.5692,-4.14,67,7,4.64,KZ,1680280941
206,hofn,64.2539,-15.2082,8.01,93,100,7.2,IS,1680280845
207,tsiroanomandidy,-18.7667,46.0333,21.61,88,100,0.79,MG,1680280941
208,semey,50.4111,80.2275,-4.32,56,6,5.81,KZ,1680280941
209,valdivia,-39.8142,-73.2459,14.05,30,99,0.87,CL,1680280817
210,soyo,-6.1349,12.3689,28.0,73,91,3.92,AO,1680280942
211,camacha,33.0833,-16.3333,19.68,68,20,5.66,PT,1680280942
212,fortuna,40.5982,-124.1573,10.37,76,100,2.68,US,1680280850
213,choszczno,53.169,15.4205,10.38,94,100,3.59,PL,1680280943
214,alta floresta,-9.8756,-56.0861,32.9,58,75,2.57,BR,1680280943
215,listvyanka,51.8535,104.8693,-8.03,80,100,4.81,RU,1680280850
216,kieta,-6.2167,155.6333,26.2,84,100,1.79,PG,1680280943
217,guarapari,-20.6667,-40.4975,30.26,59,100,3.88,BR,1680280758
218,paita,-5.0892,-81.1144,28.27,66,99,3.53,PE,1680280944
219,souillac,-20.5167,57.5167,27.21,83,40,5.14,MU,1680280846
220,lompoc,34.6391,-120.4579,13.25,80,20,1.54,US,1680280648
221,sri aman,1.2376,111.4621,24.03,94,100,1.03,MY,1680280944
222,east london,-33.0153,27.9116,18.52,82,0,0.51,ZA,1680280734
223,kruisfontein,-34.0033,24.7314,17.71,85,44,2.26,ZA,1680280856
224,satun,6.8333,100.0,24.0,87,7,1.46,TH,1680280945
225,lisakovsk,52.5369,62.4936,0.06,75,100,6.78,KZ,1680280867
226,gilgit,35.9221,74.3087,14.4,57,100,0.57,PK,1680280946
227,chilca,-12.5211,-76.7372,25.25,80,76,4.41,PE,1680280946
228,bengkulu,-3.8004,102.2655,24.08,90,93,1.82,ID,1680280947
229,san carlos,9.6612,-68.5827,35.66,31,96,2.46,VE,1680280947
230,inhambane,-23.865,35.3833,23.54,79,84,2.97,MZ,1680280947
231,longhua,23.6137,114.1919,18.59,98,98,0.39,CN,1680280947
232,ninotsminda,41.2646,43.5916,-6.91,96,100,2.98,GE,1680280948
233,kontagora,10.3999,5.4695,37.65,7,85,1.05,NG,1680280948
234,sabang,5.8933,95.3214,28.71,72,100,4.53,ID,1680280949
235,umm kaddadah,13.6017,26.6876,25.99,9,49,5.89,SD,1680280949
236,buraydah,26.326,43.975,22.25,26,2,7.14,SA,1680280883
237,petropavlovskoye,52.0712,84.107,-6.24,70,98,4.13,RU,1680280950
238,midland,31.9974,-102.0779,19.62,17,0,14.4,US,1680280767
239,malakal,9.5334,31.6605,32.91,10,76,2.53,SS,1680280950
240,alofi,-19.0595,-169.9187,24.94,100,42,2.06,NU,1680280950
241,putina,-15.4667,-69.4333,9.65,61,78,2.48,PE,1680280950
242,san carlos de bariloche,-41.1456,-71.3082,12.86,28,0,6.69,AR,1680280936
243,kajaani,64.2273,27.7285,-0.97,74,75,5.14,FI,1680280951
244,alpena,45.0617,-83.4327,5.18,97,100,4.12,US,1680280811
245,aguililla,18.7333,-102.7333,30.3,22,11,1.98,MX,1680280952
246,esperance,-33.8667,121.9,17.77,75,100,5.83,AU,1680280854
247,mount gambier,-37.8333,140.7667,10.98,73,100,2.72,AU,1680280845
248,cabo san lucas,22.8909,-109.9124,25.34,50,0,2.06,MX,1680280853
249,pervomayskoye,43.919,46.7102,5.34,53,87,2.75,RU,1680280953
250,sao joao da barra,-21.6403,-41.0511,36.05,60,38,3.62,BR,1680280953
251,honiara,-9.4333,159.95,24.83,88,99,1.23,SB,1680280953
252,praia da vitoria,38.7333,-27.0667,20.14,77,40,7.62,PT,1680280954
253,anloga,5.7947,0.8973,28.3,77,99,4.62,GH,1680280954
254,hamilton,39.1834,-84.5333,12.35,93,100,5.66,US,1680280216
255,whitianga,-36.8333,175.7,16.41,82,100,2.76,NZ,1680280954
256,leshukonskoye,64.8989,45.7622,-5.28,94,91,2.07,RU,1680280955
257,dicabisagan,17.0818,122.4157,24.83,89,27,1.57,PH,1680280955
258,saint-pierre,-21.3393,55.4781,26.82,83,29,1.54,RE,1680280955
259,warwick,41.7001,-71.4162,11.54,40,75,7.2,US,1680280955
260,belmonte,-15.8631,-38.8828,28.7,64,22,3.61,BR,1680280956
261,hobyo,5.3505,48.5268,28.72,74,10,4.87,SO,1680280956
262,cidreira,-30.1811,-50.2056,28.64,57,0,1.75,BR,1680280856
263,kavaratti,10.5669,72.642,27.26,72,2,5.07,IN,1680280957
264,slave lake,55.2834,-114.769,-4.01,93,100,4.63,CA,1680280877
265,tete,-16.1564,33.5867,27.05,61,75,4.12,MZ,1680280957
266,bethel,41.3712,-73.414,9.92,51,75,4.12,US,1680280738
267,den helder,52.9599,4.7593,11.12,94,75,8.49,NL,1680280957
268,banda aceh,5.5577,95.3222,26.66,79,98,2.97,ID,1680280868
269,samarai,-10.6167,150.6667,27.95,78,99,2.5,PG,1680280958
270,iralaya,15.0,-83.2333,27.95,64,3,6.17,HN,1680280958
271,tiksi,71.6872,128.8694,-30.88,99,52,3.56,RU,1680280851
272,big bend,-26.8167,31.9333,23.05,83,100,0.51,SZ,1680280671
273,isabela,6.7085,121.9711,25.78,87,100,1.33,PH,1680280959
274,beloha,-25.1667,45.05,22.32,88,51,4.8,MG,1680280959
275,omboue,-1.5746,9.2618,27.55,76,99,5.26,GA,1680280959
276,portland,45.5234,-122.6762,8.67,78,100,6.17,US,1680280433
277,aqtobe,50.2797,57.2072,11.05,66,0,4.0,KZ,1680280959
278,kapoeta,4.7717,33.5903,24.33,72,67,3.38,SS,1680280960
279,kodiak,57.79,-152.4072,-1.27,59,0,2.06,US,1680280859
280,vila franca do campo,37.7167,-25.4333,17.23,81,81,4.72,PT,1680280666
281,san patricio,28.017,-97.5169,28.26,51,93,11.48,US,1680280854
282,najran,17.4924,44.1277,30.36,41,65,6.79,SA,1680280960
283,senador guiomard,-10.1522,-67.7392,29.86,81,94,2.42,BR,1680280961
284,dromolaxia,34.8761,33.586,14.81,41,20,2.57,CY,1680280961
285,kerrobert,51.9168,-109.1348,-6.97,89,43,4.71,CA,1680280930
286,kaoma,-14.7833,24.8,18.96,93,92,2.15,ZM,1680280962
287,mopti,14.6667,-4.0,40.02,5,19,4.12,ML,1680280962
288,severo-kurilsk,50.6789,156.125,-0.49,74,2,3.26,RU,1680280962
289,ahipara,-35.1667,173.1667,16.72,91,100,3.69,NZ,1680280857
290,pangody,65.85,74.4859,-6.27,87,100,11.17,RU,1680280962
291,khasan,42.4308,130.6434,5.65,70,0,0.21,RU,1680280962
292,sambava,-14.2667,50.1667,26.92,83,30,7.07,MG,1680280962
293,kingston,17.997,-76.7936,30.13,62,40,3.09,JM,1680280809
294,port keats,-14.25,129.55,25.87,79,100,1.43,AU,1680280963
295,a coruna,43.3713,-8.396,17.18,64,20,4.92,ES,1680280963
296,masumbwe,-3.6333,32.1833,18.43,95,68,2.51,TZ,1680280963
297,comodoro rivadavia,-45.8667,-67.5,13.92,38,0,5.14,AR,1680280963
298,ambatolampy,-19.3833,47.4167,16.3,97,94,1.48,MG,1680280964
299,ascension,30.2169,-90.9001,26.67,79,100,5.14,US,1680280964
300,ucar,40.519,47.6542,7.1,82,100,2.66,AZ,1680280964
301,tangermunde,52.5446,11.9765,10.53,77,100,3.21,DE,1680280964
302,rawson,-43.3002,-65.1023,14.47,27,86,7.27,AR,1680280964
303,ribas do rio pardo,-20.4431,-53.7592,30.25,57,1,1.01,BR,1680280877
304,amapa,1.0,-52.0,25.71,94,93,1.92,BR,1680280858
305,solnechnyy,50.7214,136.6319,-3.74,90,5,1.76,RU,1680280964
306,ciudad bolivar,8.1222,-63.5497,34.54,37,99,4.57,VE,1680280964
307,kamen-rybolov,44.7481,132.0403,3.63,52,0,1.49,RU,1680280965
308,ngunguru,-35.6167,174.5,18.31,85,100,4.5,NZ,1680280965
309,tuktoyaktuk,69.4541,-133.0374,-25.0,70,20,8.75,CA,1680280856
310,iqaluit,63.7506,-68.5145,-9.15,79,100,6.69,CA,1680280849
311,grand gaube,-20.0064,57.6608,27.22,74,2,3.13,MU,1680280966
312,amos,48.5669,-78.1162,-1.29,88,98,2.25,CA,1680280966
313,shestakovo,56.4915,103.96,-13.19,97,100,1.13,RU,1680280966
314,noumea,-22.2763,166.4572,26.67,99,10,2.2,NC,1680280966
315,kargasok,59.0556,80.8572,-14.85,95,33,1.45,RU,1680280966
316,tiznit,29.5833,-9.5,28.05,14,0,4.01,MA,1680280966
317,santiago del estero,-27.7951,-64.2615,19.87,92,100,6.96,AR,1680280820
318,coquimbo,-29.9533,-71.3436,17.85,82,100,4.63,CL,1680280370
319,mazatlan,23.2167,-106.4167,24.98,45,40,1.54,MX,1680280859
320,boende,-0.2167,20.8667,22.6,82,99,0.81,CD,1680280966
321,vardo,70.3705,31.1107,-10.01,85,0,6.17,NO,1680280966
322,wahiawa,21.5028,-158.0236,21.18,90,75,0.0,US,1680280966
323,marks,51.7111,46.7486,6.03,65,90,7.81,RU,1680280966
324,asau,46.4333,26.4,9.51,87,64,2.43,RO,1680280967
325,burnie,-41.0667,145.9167,7.75,75,14,4.33,AU,1680280880
326,victoria,22.2855,114.1577,21.03,90,100,6.71,HK,1680280715
327,petropavlovsk-kamchatskiy,53.0452,158.6483,-2.67,69,0,5.0,RU,1680280844
328,lehtmetsa,59.3237,25.3457,0.24,90,100,4.64,EE,1680280967
329,te anau,-45.4167,167.7167,9.04,95,100,0.98,NZ,1680280967
330,santa cruz,-17.8,-63.1667,32.03,62,75,5.14,BO,1680280550
331,kaeo,-35.1,173.7833,17.4,91,100,2.51,NZ,1680280847
332,hualmay,-11.0964,-77.6139,27.13,71,51,5.24,PE,1680280967
333,launceston,-41.45,147.1667,8.12,77,1,3.09,AU,1680280967
334,katsuura,35.1333,140.3,14.9,74,5,4.17,JP,1680280967
335,mouila,-1.8685,11.0559,27.68,74,87,0.62,GA,1680280967
336,eureka,40.8021,-124.1637,10.52,71,100,2.68,US,1680280889
337,skelleftea,64.7507,20.9528,4.2,38,0,5.14,SE,1680280968
338,montbrison,45.6667,4.0833,10.19,66,73,8.17,FR,1680280968
339,karla,59.3723,24.9275,0.55,73,75,5.14,EE,1680280968
340,mehamn,71.0357,27.8492,-5.03,80,75,3.6,NO,1680280884
341,havelock,34.8791,-76.9013,23.99,56,40,9.26,US,1680280968
342,koungou,-12.7336,45.2042,27.84,83,20,4.12,YT,1680280968
343,brae,60.3964,-1.353,6.72,75,74,4.09,GB,1680280968
344,grafton,42.207,-71.6856,10.66,33,0,1.34,US,1680280968
345,mar del plata,-38.0023,-57.5575,17.01,60,40,11.83,AR,1680280625
346,guerrero negro,27.9769,-114.0611,15.97,48,38,4.1,MX,1680280850
347,margate,51.3813,1.3862,11.6,87,100,3.58,GB,1680280952
348,ostrovnoy,68.0531,39.5131,-3.82,88,95,10.41,RU,1680280870
349,ballina,-28.8667,153.5667,16.55,69,100,1.85,AU,1680280969
350,farah,32.5,62.5,21.69,21,17,1.49,AF,1680280969
351,ourinhos,-22.9789,-49.8706,29.17,56,60,2.23,BR,1680280930
352,roma,43.2128,-75.4557,7.83,54,100,4.63,US,1680280874
353,mana,5.6592,-53.7767,28.42,64,87,4.56,GF,1680280969
354,kvitok,56.0724,98.4813,-10.04,95,97,0.95,RU,1680280969
355,jinxiang,27.4327,120.6062,13.96,90,100,2.01,CN,1680280969
356,irbeyskoye,55.6428,95.4522,-10.45,92,100,3.26,RU,1680280969
357,san jose de rio tinto,14.9333,-85.7,32.76,32,20,3.87,HN,1680280969
358,kabinda,-6.1333,24.4833,18.74,93,100,1.0,CD,1680280969
359,bridgetown,13.1,-59.6167,31.27,58,40,11.32,BB,1680280523
360,pavlovka,52.6897,47.1405,3.92,70,57,6.76,RU,1680280970
361,airai,-8.9266,125.4092,15.24,94,97,0.7,TL,1680280852
362,imbituba,-28.24,-48.6703,30.48,64,0,2.7,BR,1680280820
363,topeka,39.0483,-95.678,24.38,61,100,8.75,US,1680280755
364,hasaki,35.7333,140.8333,10.68,72,1,4.67,JP,1680280748
365,cervo,43.6702,-7.4101,14.98,71,73,8.79,ES,1680280970
366,elk city,35.412,-99.4043,20.12,13,0,14.4,US,1680280970
367,santa rosa,14.3122,121.1114,27.99,86,95,3.05,PH,1680280970
368,chumikan,54.7183,135.315,-6.55,96,100,1.41,RU,1680280970
369,wichita falls,33.9137,-98.4934,23.07,29,0,15.2,US,1680280617
370,zyryanka,65.75,150.85,-16.06,84,100,7.1,RU,1680280970
371,yanji,42.9075,129.5078,9.69,46,0,0.65,CN,1680280893
372,iracoubo,5.4802,-53.2011,28.26,66,96,4.68,GF,1680280971
373,saint george,37.1041,-113.5841,9.13,63,0,1.54,US,1680280855
374,majene,-3.5403,118.9707,25.37,83,100,1.43,ID,1680280905
375,acarau,-2.8856,-40.12,27.98,75,38,4.92,BR,1680280971
376,pitkyaranta,61.5734,31.4792,-5.31,92,100,1.83,RU,1680280971
377,douentza,14.9951,-2.9517,37.72,4,3,4.27,ML,1680280971
378,senanga,-16.1167,23.2667,21.71,79,82,1.06,ZM,1680280971
379,zalantun,48.0,122.7167,10.79,28,70,1.86,CN,1680280971
380,nhulunbuy,-12.2333,136.7667,25.34,94,21,0.0,AU,1680280972
381,puerto guzman,0.9703,-76.5858,24.04,95,89,1.38,CO,1680280972
382,methoni,36.8197,21.7049,15.92,83,12,4.76,GR,1680280972
383,sabha,27.0377,14.4283,22.5,10,0,2.5,LY,1680280972
384,marzuq,14.4,46.4667,24.3,70,9,4.66,YE,1680280972
385,xichang,27.8964,102.2634,12.21,86,89,1.31,CN,1680280973
386,ketchikan,55.3422,-131.6461,3.26,93,100,7.2,US,1680280913
387,coihaique,-45.5752,-72.0662,6.34,70,100,2.57,CL,1680280880
388,saint-augustin,51.226,-58.6502,0.71,70,81,1.66,CA,1680280852
389,chuy,-33.6971,-53.4616,20.56,76,92,8.15,UY,1680280844
390,sangar,63.9242,127.4739,-21.59,96,100,2.32,RU,1680280973
391,maniitsoq,65.4167,-52.9,-6.05,47,6,1.41,GL,1680280973
392,labrea,-7.2586,-64.7981,28.7,70,88,2.11,BR,1680280973
393,novozavidovskiy,56.55,36.4333,-0.61,89,34,1.7,RU,1680280973
394,mitsamiouli,-11.3847,43.2844,27.97,73,69,1.56,KM,1680280973
395,dongsheng,39.8161,109.9776,8.79,56,23,7.48,CN,1680280974
396,itoman,26.1247,127.6694,21.01,83,81,3.6,JP,1680280974
397,nakamura,32.9833,132.9333,11.32,89,72,1.33,JP,1680280974
398,ahuimanu,21.4447,-157.8378,22.84,93,20,1.54,US,1680280974
399,puerto penasco,31.3167,-113.5333,17.17,37,69,3.13,MX,1680280975
400,manono,-7.3,27.4167,19.58,99,100,1.65,CD,1680280975
401,nouadhibou,20.931,-17.0347,36.99,13,0,2.06,MR,1680280910
402,faya,18.3851,42.4509,18.06,76,50,2.66,SA,1680280863
403,shelburne,44.0787,-80.2041,0.89,91,100,5.98,CA,1680280975
404,gat,31.61,34.7642,16.01,18,25,2.97,IL,1680280975
405,shakhtinsk,49.71,72.5872,-2.87,59,6,5.82,KZ,1680280975
406,kaihua,23.3687,104.28,14.98,94,4,2.59,CN,1680280975
407,anchorage,61.2181,-149.9003,-1.04,89,100,3.6,US,1680280721
408,abha,18.2164,42.5053,17.9,82,20,5.14,SA,1680280534
409,aykhal,66.0,111.5,-25.37,100,95,3.23,RU,1680280975
410,rocha,-34.4833,-54.3333,20.83,44,77,9.68,UY,1680280880
411,kongolo,-5.3833,27.0,20.22,98,100,0.55,CD,1680280976
412,boa vista,2.8197,-60.6733,31.99,48,40,7.2,BR,1680280976
413,vao,-22.6667,167.4833,24.84,83,48,5.01,NC,1680280976
414,takoradi,4.8845,-1.7554,28.88,71,100,5.78,GH,1680280976
415,vraca,43.8422,18.3955,14.4,44,40,2.06,BA,1680280976
416,alzamay,55.5562,98.6644,-10.19,88,86,1.46,RU,1680280976
417,lae,-6.7221,146.9847,23.35,92,73,2.52,PG,1680280976
418,oranjemund,-28.55,16.4333,17.62,77,100,6.13,NA,1680280855
419,tilichiki,60.4667,166.1,-10.14,98,99,1.21,RU,1680280861
420,hambantota,6.1241,81.1185,27.2,74,16,2.22,LK,1680280847
421,mlimba,-8.8,35.8167,23.51,88,54,1.29,TZ,1680280976
422,aksu,41.1231,80.2644,14.95,20,0,1.07,CN,1680280748
423,altay,47.8667,88.1167,-5.76,69,49,4.83,CN,1680280976
424,zaysan,47.4667,84.8667,-4.82,51,90,6.11,KZ,1680280976
425,srednekolymsk,67.45,153.6833,-15.23,94,100,8.32,RU,1680280977
426,innisfail,-17.5333,146.0333,22.32,92,59,1.37,AU,1680280977
427,sechura,-5.5569,-80.8222,28.78,63,90,3.71,PE,1680280977
428,carbonia,39.1672,8.5222,21.36,82,33,4.99,IT,1680280977
429,waipawa,-41.4122,175.5153,11.98,86,99,3.05,NZ,1680280977
430,barabai,-2.5833,115.3833,22.91,97,100,0.53,ID,1680280977
431,ratnagiri,16.9833,73.3,25.07,83,13,3.59,IN,1680280977
432,deputatskiy,69.3,139.9,-24.18,95,100,2.24,RU,1680280854
433,neiafu,-18.65,-173.9833,23.38,94,20,0.0,TO,1680280977
434,port lincoln,-34.7333,135.8667,15.31,66,95,5.76,AU,1680280977
435,geraldton,-28.7667,114.6,20.23,88,0,2.06,AU,1680280844
436,seddon,-37.8068,144.8916,13.15,83,75,4.63,AU,1680280977
437,camana,-16.6228,-72.7111,24.88,77,100,3.96,PE,1680280978
438,progreso,21.2833,-89.6667,30.62,51,93,3.55,MX,1680280978
439,athmallik,20.7219,84.5348,27.31,62,61,2.5,IN,1680280978
440,sinjai,-5.1241,120.253,23.81,91,100,1.93,ID,1680280978
441,svetlaya,46.5389,138.3297,0.33,79,47,1.47,RU,1680280978
442,karratha,-20.7377,116.8463,29.19,66,80,4.68,AU,1680280686
443,novyy urgal,51.0736,132.5642,-2.1,86,92,0.9,RU,1680280978
444,tokonou,9.65,-9.7833,33.88,20,72,1.64,GN,1680280978
445,la grande,45.3246,-118.0877,3.9,88,100,2.87,US,1680280913
446,bonthe,7.5264,-12.505,29.89,62,34,5.18,SL,1680280979
447,buala,-8.145,159.5921,25.93,80,77,0.08,SB,1680280979
448,burns lake,54.2331,-125.7533,-1.32,92,100,1.59,CA,1680280979
449,balkanabat,39.5108,54.3671,13.13,66,88,4.42,TM,1680280979
450,otacilio costa,-27.4831,-50.1219,28.26,39,0,2.81,BR,1680280979
451,mayor pablo lagerenza,-19.9309,-60.7718,36.97,33,7,2.83,PY,1680280979
452,olafsvik,64.8945,-23.7142,4.83,96,99,3.28,IS,1680280902
453,santa maria del oro,25.9333,-105.3667,21.88,15,100,3.33,MX,1680280979
454,porto novo,6.4965,2.6036,29.9,74,100,3.07,BJ,1680280979
455,thinadhoo,0.5333,72.9333,28.08,70,3,0.91,MV,1680280979
456,sorel,46.0418,-73.1136,3.99,77,85,3.76,CA,1680280979
457,iberia,29.9502,-91.7507,26.04,73,40,10.8,US,1680280980
458,bitung,1.4451,125.1824,24.47,83,86,2.52,ID,1680280980
459,saint-francois,46.4154,3.9054,9.82,76,0,5.66,FR,1680280980
460,jerantut,3.936,102.3626,23.05,88,90,0.41,MY,1680280980
461,samarinda,-0.5,117.15,23.02,98,99,0.85,ID,1680280980
462,taicheng,38.731,113.228,7.79,56,82,1.94,CN,1680280980
463,yakeshi,49.2833,120.7333,4.89,49,81,2.38,CN,1680280980
464,monrovia,6.3005,-10.7969,30.87,72,29,5.14,LR,1680280617
465,damavand,35.7178,52.065,8.74,59,100,5.03,IR,1680280980
466,villa carlos paz,-31.4241,-64.4978,18.36,52,88,5.65,AR,1680280980
467,goulburn,-34.75,149.7167,7.66,94,1,0.89,AU,1680280981
468,tual,-5.6667,132.75,28.37,73,100,2.1,ID,1680280846
469,mbini,1.574,9.6134,26.31,80,95,2.11,GQ,1680280981
470,kingsville,27.5159,-97.8561,28.05,71,75,9.77,US,1680280860
471,songjianghe,42.1859,127.479,5.97,55,5,2.33,CN,1680280981
472,secovce,48.7007,21.661,9.66,95,99,3.1,SK,1680280981
473,talcher,20.95,85.2167,25.07,76,55,3.57,IN,1680280981
474,alugan,12.2188,125.4808,26.26,84,63,3.21,PH,1680280981
475,poum,-20.2333,164.0167,26.27,82,4,4.83,NC,1680280848
476,tamiahua,21.2667,-97.45,29.2,59,94,3.36,MX,1680280982
477,mareeba,-17.0,145.4333,23.58,93,44,0.47,AU,1680280982
478,griffith,41.5284,-87.4237,17.83,74,100,8.23,US,1680280982
479,ayagoz,47.9714,80.4392,-6.22,64,3,6.46,KZ,1680280983
480,virden,39.5009,-89.7679,22.6,71,100,9.1,US,1680280983
481,atambua,-9.1061,124.8925,22.47,90,99,1.49,ID,1680280983
482,bela,25.9333,81.9833,21.4,69,99,3.6,IN,1680280984
483,diofior,14.1833,-16.6667,29.39,45,21,6.54,SN,1680280921
484,tongliao,43.6125,122.2653,15.72,22,84,6.18,CN,1680280984
485,prince rupert,54.3161,-130.3201,4.05,87,100,14.4,CA,1680280985
486,komsomolskiy,40.4272,71.7189,16.4,59,68,3.09,UZ,1680280878
487,umm lajj,25.0213,37.2685,21.13,57,13,6.8,SA,1680280986
488,sattahip,12.6664,100.9007,31.1,79,20,5.14,TH,1680280986
489,sitka,57.0531,-135.33,5.94,61,100,4.12,US,1680280849
490,bambanglipuro,-7.95,110.2833,24.76,88,100,1.48,ID,1680280987
491,waingapu,-9.6567,120.2641,25.24,80,100,1.65,ID,1680280880
492,nargana,9.4428,-78.5906,26.91,77,68,7.8,PA,1680280987
493,san ramon,37.7799,-121.978,12.05,78,20,2.06,US,1680280773
494,verkhnevilyuysk,63.4453,120.3167,-21.76,99,100,2.04,RU,1680280987
495,awjilah,29.1081,21.2869,21.11,20,0,2.31,LY,1680280987
496,chute-aux-outardes,49.1168,-68.399,-2.01,54,0,6.69,CA,1680280985
497,villarrica,-25.75,-56.4333,35.79,37,15,1.32,PY,1680280988
498,pitimbu,-7.4706,-34.8086,31.33,60,18,4.52,BR,1680280988
499,cortez,37.3489,-108.5859,1.69,62,100,5.14,US,1680280989
500,tooele,40.5308,-112.2983,3.83,65,100,3.13,US,1680280812
501,wewak,-3.5534,143.6268,25.69,85,89,1.68,PG,1680280990
502,kihei,20.785,-156.4656,23.25,85,20,3.6,US,1680280990
503,leon,21.1167,-101.6667,27.86,43,30,2.64,MX,1680280756
504,luan,46.3592,6.9759,6.42,81,100,1.34,CH,1680280991
505,acajutla,13.5928,-89.8275,31.12,51,1,5.16,SV,1680280992
506,dali,25.7,100.1833,10.41,70,0,2.69,CN,1680280993
507,mount pleasant,32.7941,-79.8626,25.61,67,40,5.66,US,1680280993
508,tura,25.5198,90.2201,18.14,93,53,1.75,IN,1680280993
509,singkang,2.1006,102.7994,23.68,94,100,1.07,MY,1680280993
510,uruzgan,32.8333,66.0,14.04,52,6,1.05,AF,1680280994
511,chimoio,-19.1164,33.4833,17.61,97,37,1.42,MZ,1680280994
512,central point,42.376,-122.9164,9.11,74,100,1.34,US,1680280995
513,tevriz,57.509,72.4042,-5.99,89,21,2.27,RU,1680280995
514,havoysund,70.9963,24.6622,-0.87,86,100,15.36,NO,1680280995
515,pampa,35.5362,-100.9599,15.02,23,0,14.92,US,1680280750
516,la macarena,2.1837,-73.7849,34.81,35,70,2.98,CO,1680280996
517,arlit,18.7369,7.3853,33.23,6,0,4.28,NE,1680280996
518,hare bay,48.8499,-54.0148,4.78,87,33,1.92,CA,1680280996
519,balkhash,46.844,74.9804,-0.53,48,0,8.41,KZ,1680280873
520,lima,-12.0432,-77.0282,25.14,73,20,4.63,PE,1680280556
521,westlock,54.1502,-113.8688,-5.43,90,78,0.91,CA,1680280997
522,batticaloa,7.7102,81.6924,26.83,79,53,3.97,LK,1680280997
523,leningradskiy,69.3833,178.4167,-19.43,85,27,2.97,RU,1680280859
524,moranbah,-22.0016,148.0466,24.23,78,69,1.86,AU,1680280997
525,bandipur,27.9333,84.4167,13.73,74,94,1.28,NP,1680280998
526,morros,-9.4467,-46.3003,30.94,49,59,2.46,BR,1680280998
527,gulf gate estates,27.2517,-82.5147,30.63,51,0,5.66,US,1680280999
528,bundaberg,-24.85,152.35,19.56,89,74,0.45,AU,1680280999
529,nelson bay,-32.7167,152.15,16.67,90,0,3.13,AU,1680280884
530,hun,29.1268,15.9477,22.83,12,0,2.59,LY,1680280999
531,sioux lookout,50.1001,-91.917,-3.96,36,20,2.57,CA,1680280999
532,rayong,12.8333,101.4333,30.44,75,76,4.0,TH,1680281000
533,labuhan,-6.8844,112.2051,23.83,87,100,2.34,ID,1680281000
534,tabuk,17.4189,121.4443,22.74,91,18,0.69,PH,1680281000
535,sao miguel do araguaia,-13.275,-50.1628,31.58,53,2,1.31,BR,1680281001
536,taoudenni,22.6783,-3.9836,35.87,5,0,7.06,ML,1680281001
537,half moon bay,37.4636,-122.4286,12.97,77,0,3.09,US,1680280884
538,stromness,58.965,-3.296,6.04,89,100,7.6,GB,1680281002
539,mahibadhoo,3.7833,72.9667,27.72,77,3,0.99,MV,1680280854
540,wanaka,-44.7,169.15,10.62,92,99,0.45,NZ,1680281002
541,keti bandar,24.1447,67.4497,25.23,72,0,7.24,PK,1680281002
542,teahupoo,-17.8333,-149.2667,21.98,76,100,3.73,PF,1680281003
543,ust-nera,64.5667,143.2,-12.71,90,90,2.65,RU,1680280876
544,vila velha,-20.3297,-40.2925,33.97,43,20,5.14,BR,1680280553
545,greenwood,34.1668,-82.1165,21.01,70,20,2.24,US,1680281003
546,kostino,58.9097,53.2691,3.14,86,100,4.85,RU,1680281004
547,kloulklubed,7.0419,134.2556,24.28,71,4,0.8,PW,1680281004
548,lingao,19.9103,109.6859,23.09,93,98,3.05,CN,1680281004
549,krasnoselkup,65.7,82.4667,-17.69,92,90,6.08,RU,1680281005
550,aklavik,68.2191,-135.0107,-20.93,92,40,2.3,CA,1680281005
551,tupik,54.4253,119.9327,-0.88,99,91,0.88,RU,1680281005
552,batemans bay,-35.7167,150.1833,16.17,82,44,1.79,AU,1680281006
553,along,28.1667,94.7667,17.38,78,63,1.09,IN,1680281007
554,aksarka,66.5606,67.7975,-1.02,92,100,11.21,RU,1680281008
555,bogacs,47.9,20.5333,12.68,78,69,3.33,HU,1680281008
556,muros,42.7762,-9.0603,16.16,74,100,5.12,ES,1680281008
557,alice springs,-23.7,133.8833,13.75,100,100,3.09,AU,1680281009
