City_ID,City,Lat,Lng,Max Temp,Humidity,Cloudiness,Wind Speed,Country,Date
0,presidencia roque saenz pena,-26.7852,-60.4388,33.66,36,20,2.48,AR,1680126337
1,mataura,-46.1927,168.8643,9.15,59,20,2.78,NZ,1680126337
2,nome,64.5011,-165.4064,-3.83,93,100,10.8,US,1680126337
3,saint george,37.1041,-113.5841,20.7,26,20,12.86,US,1680126337
4,vaini,-21.2,-175.2,28.09,78,20,2.57,TO,1680126337
5,ushuaia,-54.8,-68.3,2.81,70,40,7.72,AR,1680126102
6,asau,46.4333,26.4,0.71,84,90,2.32,RO,1680126337
7,bria,6.5423,21.9863,24.49,74,100,1.92,CF,1680126337
8,iqaluit,63.7506,-68.5145,-17.95,77,75,9.77,CA,1680126337
9,butaritari,3.0707,172.7902,27.53,79,90,6.26,KI,1680126338
10,busselton,-33.65,115.3333,17.46,71,100,9.71,AU,1680126338
11,dawson creek,55.7666,-120.2362,0.8,86,100,3.6,CA,1680126338
12,ahipara,-35.1667,173.1667,15.02,49,100,2.68,NZ,1680126338
13,qianan,44.9932,124.0581,6.37,52,5,1.5,CN,1680126338
14,dale,38.1689,-86.99,15.95,30,0,3.09,US,1680126338
15,hermanus,-34.4187,19.2345,11.56,75,39,2.08,ZA,1680126338
16,katsuura,35.1333,140.3,12.01,81,12,2.75,JP,1680126338
17,susangerd,31.5608,48.1831,20.43,43,0,2.63,IR,1680126338
18,biak,-0.9131,122.8766,24.64,82,100,0.8,ID,1680126339
19,carnarvon,-24.8667,113.6333,23.83,77,100,1.76,AU,1680126339
20,new norfolk,-42.7826,147.0587,12.73,75,100,0.89,AU,1680126339
21,ozark,37.0209,-93.206,18.58,38,10,0.89,US,1680126339
22,timizart,36.8,4.2667,14.95,36,40,3.78,DZ,1680126339
23,arraial do cabo,-22.9661,-42.0278,25.98,78,0,7.72,BR,1680126065
24,ekhabi,53.5102,142.9671,-2.01,86,97,3.93,RU,1680126339
25,kamaishi,39.2667,141.8833,7.13,76,1,1.36,JP,1680126339
26,saskylakh,71.9167,114.0833,-31.64,100,94,1.56,RU,1680126339
27,avarua,-21.2078,-159.775,28.03,83,100,4.12,CK,1680126339
28,punta arenas,-53.15,-70.9167,6.06,52,40,7.2,CL,1680126339
29,atuona,-9.8,-139.0333,27.54,75,42,6.51,PF,1680126339
30,sabha,27.0377,14.4283,17.28,36,0,6.09,LY,1680126340
31,dikson,73.5069,80.5464,-19.04,96,100,5.33,RU,1680126340
32,waipawa,-41.4122,175.5153,9.18,77,100,7.39,NZ,1680126340
33,bathsheba,13.2167,-59.5167,27.34,65,40,8.23,BB,1680126340
34,loa janan,-0.583,117.095,22.93,99,100,0.72,ID,1680126340
35,dao,11.3937,122.6856,25.01,94,100,0.03,PH,1680126340
36,kolosovka,56.4678,73.611,-6.29,89,21,4.14,RU,1680126340
37,mogadishu,2.0371,45.3438,27.22,78,52,6.42,SO,1680126340
38,albany,42.6001,-73.9662,12.23,30,97,2.22,US,1680126081
39,rikitea,-23.1203,-134.9692,26.53,77,57,3.32,PF,1680126341
40,thunder bay,48.4001,-89.3168,-3.05,33,20,6.69,CA,1680126341
41,guntakal,15.1667,77.3833,28.6,50,100,1.34,IN,1680126341
42,rawson,-43.3002,-65.1023,15.87,24,76,7.18,AR,1680126341
43,portland,45.5234,-122.6762,15.52,67,40,3.58,US,1680126215
44,saint-philippe,-21.3585,55.7679,23.77,82,82,3.0,RE,1680126341
45,castro,-24.7911,-50.0119,18.78,93,83,2.3,BR,1680126341
46,khatanga,71.9667,102.5,-30.72,100,99,1.32,RU,1680126341
47,cabo san lucas,22.8909,-109.9124,27.17,52,40,3.09,MX,1680126169
48,norman wells,65.282,-126.8329,-7.98,67,75,4.63,CA,1680126341
49,nago,26.5881,127.9761,17.24,78,100,9.29,JP,1680126341
50,san patricio,28.017,-97.5169,22.13,75,100,5.88,US,1680126234
51,cherdyn,60.403,56.4787,-7.46,91,67,1.39,RU,1680126342
52,hilo,19.7297,-155.09,29.04,80,75,5.14,US,1680126342
53,nikolskoye,59.7035,30.7861,-4.06,91,100,3.68,RU,1680126342
54,lavrentiya,65.5833,-171.0,-5.68,93,100,5.44,RU,1680126342
55,katobu,-4.9408,122.5276,23.3,95,100,1.75,ID,1680126342
56,tuktoyaktuk,69.4541,-133.0374,-17.0,71,0,1.03,CA,1680126342
57,bengkulu,-3.8004,102.2655,24.22,87,94,1.93,ID,1680126343
58,karratha,-20.7377,116.8463,27.76,78,100,5.82,AU,1680126343
59,dryden,49.7833,-92.7503,-4.84,39,0,8.23,CA,1680126195
60,coquimbo,-29.9533,-71.3436,17.85,82,20,5.66,CL,1680126130
61,hobart,-42.8794,147.3294,12.92,72,75,6.69,AU,1680125789
62,ojinaga,29.5667,-104.4167,28.1,38,0,0.0,MX,1680126343
63,gejiu,23.306,103.1635,9.14,89,0,2.18,CN,1680126343
64,athabasca,54.7169,-113.2854,3.23,99,100,0.84,CA,1680126343
65,magdagachi,53.45,125.8,-6.2,69,1,4.95,RU,1680126343
66,port elizabeth,-33.918,25.5701,16.16,67,0,9.26,ZA,1680126343
67,san vicente,-26.6167,-54.1333,24.26,68,56,1.45,AR,1680126343
68,tuatapere,-46.1333,167.6833,8.7,64,70,1.48,NZ,1680126344
69,batagay,67.6333,134.6333,-26.36,100,100,0.53,RU,1680126344
70,bluff,-46.6,168.3333,9.33,63,46,6.3,NZ,1680125880
71,udachnyy,66.4167,112.4,-16.42,70,100,4.38,RU,1680126344
72,vieux fort,13.7167,-60.95,27.62,64,75,8.23,LC,1680126344
73,fortuna,40.5982,-124.1573,13.53,63,84,2.24,US,1680125768
74,camopi,3.1655,-52.3158,23.37,98,38,1.97,GF,1680126344
75,ikot ekpene,5.1794,7.7108,25.91,83,100,3.34,NG,1680126344
76,victoria,22.2855,114.1577,20.69,94,100,3.58,HK,1680126110
77,georgetown,5.4112,100.3354,25.96,94,20,0.51,MY,1680125765
78,jamestown,42.097,-79.2353,0.8,95,100,9.26,US,1680126321
79,kapaa,22.0752,-159.319,23.18,88,100,4.12,US,1680126345
80,yellowknife,62.456,-114.3525,-7.71,67,100,3.09,CA,1680126302
81,champerico,14.3,-91.9167,33.3,59,25,4.29,GT,1680126345
82,cape town,-33.9258,18.4232,16.18,80,75,3.09,ZA,1680126300
83,maldonado,-34.6667,-54.9167,22.66,86,45,6.31,UY,1680126345
84,bereda,43.2686,-7.5406,15.08,85,85,4.66,ES,1680126345
85,thompson,55.7435,-97.8558,-2.91,36,75,7.2,CA,1680125594
86,pangnirtung,66.1451,-65.7125,-8.0,45,20,0.0,CA,1680126345
87,tiksi,71.6872,128.8694,-29.99,100,76,2.7,RU,1680126345
88,lensk,60.7253,114.9278,1.6,96,100,6.8,RU,1680126345
89,puerto ayora,-0.7393,-90.3518,30.98,83,90,3.13,EC,1680126345
90,torbay,47.6666,-52.7314,1.27,91,100,7.2,CA,1680126345
91,dubrovnik,42.6481,18.0922,6.8,61,0,4.12,HR,1680126345
92,port-cartier,50.0334,-66.8654,1.53,92,62,2.33,CA,1680126345
93,gobabis,-22.45,18.9667,21.65,33,5,3.59,NA,1680126346
94,cordoba,-31.4135,-64.1811,23.47,31,75,7.2,AR,1680126068
95,yining,29.0361,114.5636,11.73,97,100,0.53,CN,1680126346
96,port alfred,-33.5906,26.891,13.99,77,89,0.89,ZA,1680126346
97,beringovskiy,63.05,179.3167,-6.61,89,99,6.99,RU,1680126346
98,nyaunglebin,17.95,96.7333,22.66,67,21,1.76,MM,1680126346
99,toora-khem,52.4675,96.11,-4.63,97,19,0.43,RU,1680126346
100,verkhnyaya inta,65.9811,60.3094,-15.42,100,81,3.64,RU,1680126346
101,broome,42.2506,-75.833,10.61,39,100,6.26,US,1680126346
102,ribeira grande,38.5167,-28.7,17.1,88,100,14.31,PT,1680126347
103,provideniya,64.3833,-173.3,-1.94,80,100,7.15,RU,1680126347
104,tasiilaq,65.6145,-37.6368,-7.91,70,3,1.41,GL,1680126347
105,buncrana,55.1333,-7.45,7.85,95,89,3.78,IE,1680126347
106,tsaratanana,-16.7833,47.65,23.13,94,100,1.97,MG,1680126347
107,hithadhoo,-0.6,73.0833,27.75,77,28,3.1,MV,1680126347
108,nanortalik,60.1432,-45.2371,-4.06,92,32,1.87,GL,1680126347
109,pisco,-13.7,-76.2167,30.03,54,0,7.72,PE,1680126348
110,along,28.1667,94.7667,14.7,80,99,0.64,IN,1680126348
111,srednekolymsk,67.45,153.6833,-19.13,91,98,3.95,RU,1680126348
112,haines junction,60.7522,-137.5108,-0.03,47,100,2.57,CA,1680126348
113,bambous virieux,-20.3428,57.7575,27.14,83,75,3.6,MU,1680126348
114,ancud,-41.8697,-73.8203,11.7,69,96,7.0,CL,1680126348
115,inuvik,68.3499,-133.7218,-10.52,64,0,3.09,CA,1680126348
116,weihai,37.5017,122.1136,7.62,53,0,4.18,CN,1680126348
117,anqing,30.5092,117.0506,13.15,89,100,1.24,CN,1680126349
118,tamandare,-8.7597,-35.1047,24.14,92,29,1.55,BR,1680126350
119,akom,2.6678,12.7109,19.78,96,91,1.1,CM,1680126350
120,mabaruma,8.2,-59.7833,28.0,69,40,4.12,GY,1680126350
121,mahebourg,-20.4081,57.7,27.16,83,75,3.6,MU,1680126350
122,ostrovnoy,68.0531,39.5131,-2.84,91,100,8.98,RU,1680126350
123,dali,25.7,100.1833,7.05,69,0,2.11,CN,1680126351
124,kropotkin,45.4375,40.5756,2.13,98,100,6.23,RU,1680126351
125,dongsheng,39.8161,109.9776,6.64,23,47,3.76,CN,1680126351
126,pevek,69.7008,170.3133,-17.56,93,100,4.58,RU,1680126351
127,luderitz,-26.6481,15.1594,15.54,76,0,13.25,NA,1680126351
128,paamiut,61.994,-49.6678,-9.39,79,9,2.88,GL,1680126352
129,ikryanoye,46.0932,47.7308,8.99,65,87,3.43,RU,1680126352
130,sinnamary,5.3833,-52.95,25.99,82,52,7.6,GF,1680126352
131,baherden,38.4362,57.4316,19.77,42,0,2.78,TM,1680126352
132,inhambane,-23.865,35.3833,21.28,81,0,3.5,MZ,1680126352
133,asha,54.9973,57.2722,-1.57,89,14,2.68,RU,1680126353
134,mar del plata,-38.0023,-57.5575,17.27,56,40,5.14,AR,1680125870
135,kapustin yar,48.5831,45.7372,11.36,65,100,3.67,RU,1680126353
136,east london,-33.0153,27.9116,16.94,67,96,7.28,ZA,1680126353
137,bandiagara,14.3501,-3.6104,30.03,10,16,5.62,ML,1680126353
138,namibe,-15.1961,12.1522,23.5,79,100,3.61,AO,1680126353
139,gat,31.61,34.7642,15.38,100,79,6.61,IL,1680126353
140,kodiak,57.79,-152.4072,3.73,87,100,5.66,US,1680126353
141,qaanaaq,77.484,-69.3632,-22.71,64,90,3.29,GL,1680126353
142,leningradskiy,69.3833,178.4167,-11.05,87,100,7.16,RU,1680126353
143,san bartolome jocotenango,15.1928,-91.0772,28.7,33,3,5.37,GT,1680126354
144,yermakovskoye,53.2831,92.4003,1.8,88,7,1.75,RU,1680126354
145,saint-pierre,-21.3393,55.4781,23.82,78,40,1.54,RE,1680126354
146,miandrivazo,-19.5167,45.4667,22.89,97,83,0.78,MG,1680126354
147,moranbah,-22.0016,148.0466,24.3,76,30,4.87,AU,1680126354
148,tilichiki,60.4667,166.1,-4.95,81,100,5.86,RU,1680126354
149,caravelas,-17.7125,-39.2481,24.75,75,0,3.35,BR,1680126354
150,faanui,-16.4833,-151.75,28.08,73,93,3.61,PF,1680126354
151,faya,18.3851,42.4509,16.06,64,2,0.51,SA,1680126354
152,vitim,59.4511,112.5578,2.5,100,100,6.65,RU,1680126354
153,hamina,60.5697,27.1979,-7.4,97,22,1.85,FI,1680126354
154,cockburn town,21.4612,-71.1419,25.25,73,0,5.88,TC,1680126355
155,hualmay,-11.0964,-77.6139,23.79,83,99,5.34,PE,1680126355
156,kavieng,-2.5744,150.7967,28.4,70,100,2.65,PG,1680126355
157,olinda,-8.0089,-34.8553,24.85,88,75,2.06,BR,1680126355
158,rio das pedras,-22.8433,-47.6061,22.55,82,74,1.59,BR,1680126342
159,chuy,-33.6971,-53.4616,23.78,69,59,1.77,UY,1680126355
160,kruisfontein,-34.0033,24.7314,12.71,81,55,5.58,ZA,1680126355
161,ust-kuyga,70.0167,135.6,-23.49,100,100,1.09,RU,1680126355
162,barrow,71.2906,-156.7887,-12.99,72,0,6.17,US,1680126355
163,huarmey,-10.0681,-78.1522,25.17,78,90,3.96,PE,1680126355
164,cervo,43.6702,-7.4101,14.96,73,28,9.09,ES,1680126355
165,bredasdorp,-34.5322,20.0403,14.24,74,49,2.42,ZA,1680126355
166,yar-sale,66.8333,70.8333,-15.97,81,26,7.0,RU,1680126355
167,chapais,49.7834,-74.8492,-1.12,92,100,2.46,CA,1680126355
168,tsogni,-2.7942,10.0988,23.94,86,100,3.12,GA,1680126356
169,haimen,23.1935,116.6142,16.94,88,100,2.28,CN,1680126356
170,ruza,55.699,36.1952,3.73,94,100,3.13,RU,1680126356
171,ponta do sol,32.6667,-17.1,21.74,31,18,2.91,PT,1680126356
172,katangli,51.7102,143.2326,-0.05,76,97,1.53,RU,1680126356
173,severo-yeniseyskiy,60.3725,93.0408,-15.66,92,100,4.86,RU,1680126356
174,mahajanga,-15.7167,46.3167,25.01,94,20,2.57,MG,1680126356
175,parrsboro,45.4001,-64.332,7.31,76,29,1.56,CA,1680126356
176,tay ninh,11.3,106.1,25.19,71,99,2.02,VN,1680126356
177,ailigandi,9.2333,-78.0167,25.89,84,36,5.13,PA,1680126356
178,rio grande,-32.035,-52.0986,32.06,70,18,1.6,BR,1680126356
179,okha,53.5739,142.9478,-1.92,86,97,3.93,RU,1680126356
180,sao filipe,14.8961,-24.4956,25.11,56,92,6.33,CV,1680126356
181,nishiwaki,34.9833,134.9667,10.03,56,27,1.2,JP,1680126356
182,olafsvik,64.8945,-23.7142,2.17,86,99,9.11,IS,1680126356
183,sistranda,63.7256,8.834,-8.02,66,55,8.49,NO,1680126356
184,lagoa,39.05,-27.9833,15.89,83,100,17.82,PT,1680126356
185,nola,40.922,14.5329,12.02,88,58,1.07,IT,1680126357
186,mapiripan,2.8892,-72.1256,30.72,50,68,1.68,CO,1680126357
187,rumoi,43.9344,141.6428,4.35,75,5,5.05,JP,1680126357
188,coahuayana,18.7333,-103.6833,30.74,42,92,3.41,MX,1680126357
189,alofi,-19.0595,-169.9187,27.94,78,75,2.06,NU,1680126357
190,lompoc,34.6391,-120.4579,13.9,74,40,6.26,US,1680126357
191,yongan,39.6957,113.6871,6.69,36,1,1.66,CN,1680126357
192,hailar,49.2,119.7,-0.39,77,48,4.31,CN,1680126357
193,agua branca,-5.8922,-42.6361,24.65,83,100,1.15,BR,1680126357
194,mozarlandia,-14.7447,-50.5706,25.08,71,7,0.57,BR,1680126357
195,lerwick,60.1545,-1.1494,7.0,96,100,11.84,GB,1680126357
196,washington,47.5001,-120.5015,12.65,29,90,1.44,US,1680126121
197,te anau,-45.4167,167.7167,11.08,60,54,1.09,NZ,1680126357
198,manta,-0.95,-80.7333,29.88,70,40,2.57,EC,1680126358
199,atar,20.5169,-13.0499,31.08,7,0,3.31,MR,1680126358
200,laguna,38.421,-121.4238,12.27,61,100,10.29,US,1680126103
201,mkushi,-13.6202,29.3939,16.87,97,77,0.86,ZM,1680126358
202,bolshaya glushitsa,50.2406,43.5908,9.06,82,100,2.36,RU,1680126358
203,kirakira,-10.4544,161.9205,28.52,70,98,4.13,SB,1680126358
204,hambantota,6.1241,81.1185,25.19,100,40,1.03,LK,1680126358
205,souillac,-20.5167,57.5167,27.21,83,75,3.6,MU,1680126358
206,saint anthony,45.0205,-93.218,-1.41,42,0,5.66,US,1680126358
207,mata de sao joao,-12.5303,-38.2992,24.86,92,38,1.58,BR,1680126181
208,sitka,57.0531,-135.33,6.94,57,0,6.69,US,1680126358
209,hervey bay,-25.2986,152.8535,23.77,83,100,3.78,AU,1680126358
210,abu kamal,34.4506,40.9171,13.99,59,0,5.74,SY,1680126358
211,northam,51.0333,-4.2167,11.88,95,95,10.95,GB,1680126358
212,chokurdakh,70.6333,147.9167,-28.15,99,98,2.08,RU,1680126358
213,gizo,-8.103,156.8419,27.78,76,100,4.07,SB,1680126358
214,san joaquin,37.9333,-121.3011,12.14,81,75,6.69,US,1680126359
215,kahului,20.8947,-156.47,28.01,67,20,5.81,US,1680126289
216,asfi,32.2994,-9.2372,17.08,85,1,5.92,MA,1680126359
217,najran,17.4924,44.1277,23.36,62,22,1.69,SA,1680126359
218,calderitas,18.55,-88.25,30.06,58,40,6.69,MX,1680125865
219,general pico,-35.6566,-63.7568,19.55,25,11,4.25,AR,1680126359
220,marquette,46.5333,-87.6335,-3.7,42,100,4.02,US,1680126198
221,derzhavinsk,51.1,66.3167,0.49,83,100,8.08,KZ,1680126359
222,fethiye,36.6217,29.1164,7.93,51,39,3.57,TR,1680126359
223,sosnovo,60.5514,30.2144,-6.2,94,100,3.12,RU,1680126359
224,constitucion,-35.3333,-72.4167,13.73,70,38,12.48,CL,1680126356
225,vilhena,-12.7406,-60.1458,29.12,58,20,3.6,BR,1680126359
226,klaksvik,62.2266,-6.589,5.51,97,100,18.13,FO,1680126359
227,tiznit,29.5833,-9.5,23.31,23,0,1.24,MA,1680126359
228,trenggalek,-8.05,111.7167,24.59,89,100,1.56,ID,1680126359
229,vila franca do campo,37.7167,-25.4333,16.23,90,100,6.24,PT,1680126359
230,chopinzinho,-25.8558,-52.5233,18.53,96,43,1.95,BR,1680126359
231,odweyne,9.4092,45.064,23.74,65,59,2.28,SO,1680126359
232,shirokiy,49.758,129.523,0.01,55,78,5.34,RU,1680126360
233,necochea,-38.5473,-58.7368,13.81,53,4,5.6,AR,1680126360
234,matamoros,25.5333,-103.25,25.62,41,75,3.09,MX,1680125952
235,sao joao da barra,-21.6403,-41.0511,27.05,88,45,2.49,BR,1680126360
236,oranjemund,-28.55,16.4333,16.58,81,0,9.95,NA,1680126360
237,hamilton,39.1834,-84.5333,14.49,36,20,5.66,US,1680126134
238,jalu,29.0331,21.5482,14.76,33,0,4.81,LY,1680126360
239,batticaloa,7.7102,81.6924,22.28,89,31,1.43,LK,1680126360
240,airai,-8.9266,125.4092,13.88,90,100,1.83,TL,1680126360
241,am timan,11.0297,20.2827,31.58,14,23,2.21,TD,1680126360
242,samarai,-10.6167,150.6667,28.42,72,29,1.22,PG,1680126360
243,lata,40.1629,-8.3327,11.8,89,65,1.63,PT,1680126360
244,cayenne,4.9333,-52.3333,27.02,78,100,5.14,GF,1680126360
245,erenhot,43.6475,111.9767,5.79,28,1,2.31,CN,1680126361
246,narsaq,60.9167,-46.05,1.12,73,11,3.48,GL,1680126361
247,lucapa,-8.4192,20.7447,19.38,97,30,0.45,AO,1680126361
248,batemans bay,-35.7167,150.1833,15.61,71,29,1.22,AU,1680126361
249,codrington,-38.2667,141.9667,12.86,83,10,3.29,AU,1680126361
250,jimma,7.6667,36.8333,16.7,80,99,0.65,ET,1680126361
251,tolaga bay,-38.3667,178.3,17.98,49,34,3.43,NZ,1680126361
252,santiago del estero,-27.7951,-64.2615,32.39,47,0,3.06,AR,1680126361
253,cururupu,-1.8283,-44.8683,23.21,98,98,1.11,BR,1680126362
254,san cristobal,7.7669,-72.225,24.1,56,99,1.04,VE,1680126170
255,west lake stevens,47.9934,-122.1018,16.24,41,75,4.12,US,1680126362
256,mount gambier,-37.8333,140.7667,12.14,85,42,1.29,AU,1680126362
257,kutum,14.2,24.6667,22.03,13,19,4.2,SD,1680126362
258,bethel,41.3712,-73.414,12.58,33,0,4.12,US,1680126362
259,abay,49.6311,72.8539,1.21,91,29,7.45,KZ,1680126362
260,manokwari,-0.8667,134.0833,25.85,76,99,0.89,ID,1680126233
261,addanki,15.8167,79.9833,25.53,84,90,3.03,IN,1680126362
262,taoudenni,22.6783,-3.9836,31.26,7,1,8.87,ML,1680126362
263,touros,-5.1989,-35.4608,28.03,73,14,5.88,BR,1680126362
264,novikovo,51.1537,37.8879,2.92,74,100,3.47,RU,1680126362
265,severo-kurilsk,50.6789,156.125,2.31,68,9,5.21,RU,1680126362
266,husavik,66.0449,-17.3389,1.84,79,93,12.34,IS,1680126363
267,beira,-19.8436,34.8389,21.32,85,25,2.56,MZ,1680126198
268,hit,33.6416,42.8251,18.69,50,4,7.62,IQ,1680126363
269,luau,-10.7073,22.2247,18.12,95,65,0.53,AO,1680126363
270,egvekinot,66.3167,-179.1667,-7.36,88,100,3.6,RU,1680126363
271,praia da vitoria,38.7333,-27.0667,17.14,77,40,12.17,PT,1680126363
272,pangkalanbuun,-2.6833,111.6167,23.1,99,100,0.99,ID,1680126363
273,upernavik,72.7868,-56.1549,-29.5,98,61,2.62,GL,1680126363
274,vao,-22.6667,167.4833,24.63,76,50,3.17,NC,1680126363
275,roxana,10.2753,-83.7513,28.56,51,35,2.87,CR,1680126363
276,cobija,-11.0267,-68.7692,25.0,94,70,1.38,BO,1680126363
277,talnakh,69.4865,88.3972,-26.0,100,100,2.53,RU,1680126363
278,eyl,7.9803,49.8164,26.53,76,30,2.82,SO,1680126363
279,padang,-0.9492,100.3543,24.03,89,93,1.66,ID,1680126364
280,kirkuk,35.4681,44.3922,15.17,65,9,5.14,IQ,1680126364
281,lebu,-37.6167,-73.65,12.63,69,17,9.95,CL,1680126364
282,ilulissat,69.2167,-51.1,-13.99,72,20,2.06,GL,1680126364
283,olavarria,-36.8927,-60.3225,14.22,44,4,3.91,AR,1680126206
284,hanna,51.6334,-111.9018,-1.75,82,54,4.02,CA,1680126300
285,margate,51.3813,1.3862,12.72,79,98,3.13,GB,1680126364
286,collie,-33.3667,116.15,14.15,80,100,4.19,AU,1680126364
287,kandiaro,27.0601,68.2091,22.25,49,15,2.99,PK,1680126364
288,shubarkuduk,49.1447,56.4872,6.21,80,0,10.55,KZ,1680126364
289,itarare,-24.1125,-49.3317,21.8,84,90,1.49,BR,1680126364
290,hofn,64.2539,-15.2082,2.01,98,100,2.4,IS,1680126365
291,muravlenko,63.7898,74.523,-17.97,96,88,7.4,RU,1680126365
292,tecpan,14.7623,-90.9947,21.45,36,20,5.41,GT,1680126365
293,los llanos de aridane,28.6585,-17.9182,22.86,11,0,4.63,ES,1680126365
294,corlateni,47.9333,26.55,2.64,58,29,3.31,RO,1680126365
295,roald,62.5833,6.1333,2.09,64,0,8.23,NO,1680126365
296,geraldton,-28.7667,114.6,23.23,78,40,8.75,AU,1680125881
297,pindiga,9.9833,10.9333,27.13,9,99,2.84,NG,1680126365
298,seymchan,62.8833,152.4333,-16.35,97,100,1.85,RU,1680126365
299,bocaiuva,-17.1078,-43.815,27.84,33,95,2.46,BR,1680126093
300,winslow,35.0242,-110.6974,21.1,11,0,9.77,US,1680126365
301,nouadhibou,20.931,-17.0347,19.99,83,0,8.23,MR,1680126144
302,angoram,-4.0625,144.0661,25.08,94,100,0.07,PG,1680126365
303,gweru,-19.45,29.8167,19.31,61,100,1.65,ZW,1680126366
304,borovoy,55.4333,86.0833,0.6,93,100,6.0,RU,1680126100
305,kaitangata,-46.2817,169.8464,10.57,58,93,2.06,NZ,1680126366
306,nyurba,63.2842,118.3319,-11.45,95,100,4.2,RU,1680126366
307,karvina,49.854,18.5417,6.08,70,74,4.8,CZ,1680126366
308,lasa,46.6166,10.7002,7.49,96,88,2.19,IT,1680126366
309,turayf,31.6725,38.6637,11.14,58,0,6.17,SA,1680126366
310,anderson,34.5334,-82.6499,19.03,30,0,3.6,US,1680126006
311,saint-francois,46.4154,3.9054,15.38,72,0,2.57,FR,1680126245
312,salalah,17.0151,54.0924,27.05,74,75,1.03,OM,1680126366
313,puerto escondido,15.85,-97.0667,30.14,57,6,3.31,MX,1680126366
314,murgab,37.4966,61.9714,16.93,55,0,1.03,TM,1680126366
315,tahoua,14.8888,5.2692,29.99,11,40,1.03,NE,1680126366
316,igarka,67.4667,86.5833,-23.64,98,86,3.15,RU,1680126366
317,spirit river,55.7833,-118.8361,0.24,97,100,3.27,CA,1680126366
318,owando,-0.4819,15.8999,22.24,95,100,1.11,CG,1680126366
319,gigmoto,13.7796,124.39,25.25,87,100,2.69,PH,1680126367
320,mumford,5.2618,-0.759,26.71,86,100,2.3,GH,1680126367
321,mayo,38.8876,-76.5119,16.75,43,0,5.66,US,1680126367
322,waterfoot,53.6929,-2.2525,11.95,94,100,1.79,GB,1680126367
323,kismayo,-0.3582,42.5454,27.19,75,8,4.59,SO,1680126367
324,nishihara,26.1842,127.7558,17.6,88,75,10.29,JP,1680126367
325,athens,37.9795,23.7162,11.48,41,20,2.57,GR,1680126304
326,bara,10.3744,10.7288,27.14,10,100,3.23,NG,1680126367
327,cherskiy,68.75,161.3,-25.28,97,91,0.56,RU,1680126367
328,pacific grove,36.6177,-121.9166,13.06,73,75,8.23,US,1680126367
329,la ronge,55.1001,-105.2842,1.14,40,75,5.66,CA,1680126367
330,goderich,43.7501,-81.7165,1.18,47,99,8.23,CA,1680126367
331,gdov,58.7406,27.8122,-4.25,84,77,2.83,RU,1680126368
332,ponta pora,-22.5361,-55.7256,31.95,43,20,1.03,BR,1680126368
333,lake havasu city,34.4839,-114.3224,24.0,26,0,9.26,US,1680126368
334,blacksburg,37.2296,-80.4139,14.99,29,0,1.54,US,1680126173
335,zabaykalsk,49.6333,117.3167,0.08,88,58,3.83,RU,1680126368
336,alyangula,-13.8483,136.4192,27.55,71,12,3.66,AU,1680126368
337,guozhen,34.3659,107.359,10.58,55,43,0.87,CN,1680126368
338,ishurdi,24.1333,89.0833,23.19,86,5,3.02,BD,1680126368
339,balabac,7.9868,117.0645,26.53,82,72,3.31,PH,1680126368
340,nizhniy kuranakh,58.8353,125.4869,-18.97,97,65,1.95,RU,1680126368
341,nemuro,43.3236,145.575,2.26,85,0,1.83,JP,1680126368
342,turukhansk,65.8167,87.9833,-29.22,100,96,1.74,RU,1680126368
343,genhe,50.7833,121.5167,-8.76,92,14,0.97,CN,1680126368
344,grenaa,56.4158,10.8783,6.12,96,100,3.05,DK,1680126369
345,delano,35.7688,-119.247,15.18,43,100,0.0,US,1680126369
346,gorontalo,0.5412,123.0595,23.5,96,100,1.0,ID,1680126369
347,nicoya,10.1483,-85.452,32.72,37,6,5.51,CR,1680126195
348,brae,60.3964,-1.353,6.25,95,100,12.79,GB,1680126369
349,shingu,33.7333,135.9833,10.04,58,100,1.13,JP,1680126369
350,guerrero negro,27.9769,-114.0611,18.84,40,0,7.71,MX,1680125925
351,nabire,-3.3667,135.4833,25.96,82,100,2.77,ID,1680126369
352,longyearbyen,78.2186,15.6401,-13.09,78,75,2.06,SJ,1680126369
353,san jeronimo,-11.9472,-75.2829,13.06,76,96,2.89,PE,1680126369
354,mananara,-16.1667,49.7667,24.37,91,59,1.43,MG,1680126370
355,falun,60.6036,15.626,-6.7,83,11,0.97,SE,1680126370
356,saldanha,-33.0117,17.9442,14.03,79,50,9.11,ZA,1680126370
357,birjand,32.8663,59.2211,9.26,81,0,2.06,IR,1680126370
358,flinders,-34.5833,150.8552,17.81,75,0,2.68,AU,1680126370
359,ostersund,63.1792,14.6357,-8.75,62,35,0.51,SE,1680126370
360,paita,-5.0892,-81.1144,26.26,83,95,5.44,PE,1680126343
361,pampas,-12.4,-74.9,13.11,78,91,2.8,PE,1680126371
362,mrakovo,52.7161,56.6244,1.02,63,11,8.97,RU,1680126371
363,vanavara,60.34,102.2797,0.9,98,100,6.18,RU,1680126371
364,vestmanna,62.1564,-7.1664,4.51,87,100,16.98,FO,1680126371
365,trelew,-43.249,-65.3051,15.82,19,79,6.87,AR,1680126371
366,china,25.7,-99.2333,21.07,51,82,2.73,MX,1680126371
367,sangar,63.9242,127.4739,-25.41,100,99,0.25,RU,1680126371
368,zakamensk,50.3741,103.2863,-0.6,69,1,1.15,RU,1680126371
369,qaqortoq,60.7167,-46.0333,-5.05,77,15,1.32,GL,1680126371
370,presque isle,46.6811,-68.0159,5.92,39,0,4.63,US,1680126371
371,port blair,11.6667,92.75,26.02,89,40,1.03,IN,1680126372
372,axim,4.8699,-2.2405,26.7,86,84,3.14,GH,1680126372
373,oyama,36.3,139.8,12.55,83,100,1.92,JP,1680126372
374,korhogo,9.45,-5.6333,26.4,64,71,2.66,CI,1680126372
375,raudeberg,61.9875,5.1352,2.37,67,55,3.72,NO,1680126372
376,high level,58.5169,-117.136,0.06,59,75,5.14,CA,1680126301
377,lagos,6.5833,3.75,29.18,83,81,2.97,NG,1680125927
378,lira,2.235,32.9097,18.67,85,22,0.83,UG,1680126372
379,puerto asis,0.5133,-76.5007,27.67,72,93,0.87,CO,1680126372
380,saint-georges,12.0564,-61.7485,27.82,65,40,8.75,GD,1680126372
381,ewa beach,21.3156,-158.0072,26.97,75,20,7.72,US,1680126372
382,avera,33.194,-82.5271,19.1,37,100,1.39,US,1680126372
383,ariquemes,-9.9133,-63.0408,24.88,94,99,1.22,BR,1680126373
384,tangwani,28.2787,68.9972,21.86,54,2,8.32,PK,1680126373
385,guerande,47.3291,-2.4283,12.68,90,99,7.86,FR,1680126373
386,burnie,-41.0667,145.9167,14.14,75,100,6.15,AU,1680126373
387,okhotsk,59.3833,143.3,-7.14,94,100,2.32,RU,1680126373
388,huejuquilla el alto,22.6,-103.8667,29.19,8,96,7.47,MX,1680126343
389,port lincoln,-34.7333,135.8667,15.75,72,55,2.04,AU,1680126373
390,lujan,-34.5703,-59.105,21.12,70,86,1.79,AR,1680126312
391,awjilah,29.1081,21.2869,14.78,33,0,4.64,LY,1680126373
392,kiyasovo,56.3491,53.1244,-2.58,88,90,4.18,RU,1680126373
393,yulara,-25.2406,130.9889,21.32,43,100,6.75,AU,1680126373
394,henties bay,-22.116,14.2845,15.56,93,9,4.46,NA,1680126374
395,kurilsk,45.2333,147.8833,1.38,79,5,4.37,RU,1680126374
396,toamasina,-18.1667,49.3833,24.0,94,75,1.03,MG,1680126374
397,huilong,31.8111,121.655,11.07,95,100,2.13,CN,1680126374
398,prainha,-1.8,-53.48,24.9,89,61,1.64,BR,1680126374
399,lima,-12.0432,-77.0282,27.14,57,0,5.14,PE,1680125777
400,zaraza,9.3503,-65.3245,29.57,41,97,5.99,VE,1680126374
401,barwani,22.0333,74.9,24.82,44,0,6.11,IN,1680126374
402,ler,8.3018,30.1418,31.14,20,77,1.64,SS,1680126374
403,namatanai,-3.6667,152.4333,27.37,77,99,1.5,PG,1680126374
404,bani,18.2833,-70.3333,30.69,59,0,4.6,DO,1680126374
405,monrovia,6.3005,-10.7969,23.87,84,53,2.66,LR,1680126374
406,luganville,-15.5333,167.1667,28.28,72,97,1.0,VU,1680126375
407,anadyr,64.75,177.4833,-7.72,92,100,10.0,RU,1680126375
408,fukue,32.6881,128.8419,13.94,63,100,2.66,JP,1680126375
409,port hardy,50.6996,-127.4199,9.1,57,20,2.57,CA,1680126375
410,severnoye,56.3491,78.3619,-5.68,75,49,4.82,RU,1680126375
411,khandyga,62.6667,135.6,-6.87,96,100,1.4,RU,1680126375
412,kulu,39.0951,33.0799,-1.53,78,98,4.85,TR,1680126375
413,nakodar,31.1258,75.4733,21.12,42,100,3.0,IN,1680126375
414,bonthe,7.5264,-12.505,25.57,86,64,5.01,SL,1680126375
415,margherita,27.2833,95.6833,16.71,91,57,0.95,IN,1680126375
416,san quintin,30.4833,-115.95,16.73,61,0,6.78,MX,1680126375
417,nantucket,41.2835,-70.0995,7.27,61,0,4.12,US,1680126226
418,bridlington,54.0831,-0.1919,12.38,97,97,6.54,GB,1680126376
419,itarema,-2.9248,-39.9167,25.77,82,27,3.84,BR,1680126376
420,mortka,59.3322,66.0214,-5.95,83,16,3.69,RU,1680126376
421,yinchuan,38.4681,106.2731,10.75,17,100,1.88,CN,1680126376
422,bonavista,48.6499,-53.1147,-1.31,95,97,6.72,CA,1680126376
423,maniwaki,46.3834,-75.966,0.21,100,100,2.57,CA,1680126376
424,alakurtti,66.9672,30.3491,-3.73,98,100,1.19,RU,1680126376
425,khani,41.9563,42.9566,0.76,99,100,1.84,GE,1680126376
426,koroni,36.8,21.95,10.04,61,36,4.4,GR,1680126376
427,port-gentil,-0.7193,8.7815,24.98,94,75,3.09,GA,1680126376
428,hasaki,35.7333,140.8333,11.79,73,51,0.87,JP,1680126093
429,morondava,-20.2833,44.2833,24.87,75,30,1.12,MG,1680126376
430,freeport,40.6576,-73.5832,12.2,53,0,7.72,US,1680126136
431,yuzhno-kurilsk,44.0306,145.8556,2.38,87,0,2.48,RU,1680126377
432,taebla,58.9547,23.7419,-1.15,79,100,0.42,EE,1680126377
433,sungaipenuh,-2.0833,101.3833,17.54,97,40,1.37,ID,1680126377
434,buritizeiro,-17.3511,-44.9622,24.89,27,97,1.51,BR,1680126377
435,tabou,4.423,-7.3528,26.6,87,45,2.63,CI,1680126377
436,burgeo,47.6167,-57.6152,0.51,89,100,5.38,CA,1680126377
437,diffa,13.3154,12.6113,26.64,12,88,4.05,NE,1680126377
438,zalantun,48.0,122.7167,1.83,67,37,1.74,CN,1680126377
439,northfield,44.4583,-93.1616,-1.57,50,0,3.6,US,1680126250
440,ranong,9.9658,98.6348,26.25,80,94,2.14,TH,1680126377
441,yoichi,43.2039,140.7703,5.54,75,3,4.83,JP,1680126378
442,cocobeach,1.0002,9.5823,25.27,80,100,1.42,GA,1680126378
443,grants,35.1473,-107.8514,20.13,8,0,3.6,US,1680126089
444,dunmore town,25.5,-76.65,25.42,75,43,5.68,BS,1680126378
445,canavieiras,-15.675,-38.9472,24.5,75,6,2.33,BR,1680126378
446,palkonda,18.6,83.75,25.66,84,23,1.52,IN,1680126378
447,poum,-20.2333,164.0167,26.47,77,100,5.41,NC,1680126378
448,nurota,40.5614,65.6886,16.88,41,6,4.72,UZ,1680126378
449,hvide sande,56.0045,8.1294,6.72,98,100,6.09,DK,1680126378
450,kaduqli,11.0167,29.7167,27.54,9,17,3.58,SD,1680126378
451,qinzhou,21.95,108.6167,16.56,88,99,4.4,CN,1680126378
452,dubbo,-32.25,148.6167,14.07,82,0,3.6,AU,1680126378
453,tazovskiy,67.4667,78.7,-16.93,94,100,8.02,RU,1680126379
454,havre-saint-pierre,50.2334,-63.5986,1.2,80,75,2.57,CA,1680126379
455,hovd,48.0056,91.6419,1.98,40,75,1.03,MN,1680126379
456,banda aceh,5.5577,95.3222,28.17,73,8,4.14,ID,1680126379
457,tamworth,52.634,-1.6959,12.13,93,100,7.56,GB,1680126379
458,vila velha,-20.3297,-40.2925,26.97,83,40,3.6,BR,1680126379
459,mao,39.8885,4.2658,12.31,87,0,2.57,ES,1680126379
460,maceio,-9.6658,-35.7353,24.69,94,75,4.12,BR,1680126379
461,cidreira,-30.1811,-50.2056,23.67,89,50,1.87,BR,1680126379
462,challans,46.8436,-1.8749,14.11,94,79,4.64,FR,1680126380
463,bichura,50.5881,107.6022,-0.5,84,19,1.41,RU,1680126380
464,chipinge,-20.1883,32.6236,15.87,77,5,0.98,ZW,1680126380
465,pacifica,37.6138,-122.4869,10.57,83,75,6.17,US,1680126004
466,sao joaquim,-28.2939,-49.9317,15.15,96,89,0.95,BR,1680126380
467,sakakah,29.9697,40.2064,20.76,47,5,6.64,SA,1680126380
468,sivaki,52.6333,126.75,-5.72,71,53,6.44,RU,1680126380
469,kulunda,52.566,78.9385,1.3,84,84,8.3,RU,1680126380
470,shasta lake,40.6804,-122.3708,7.2,91,100,0.45,US,1680126380
471,khargupur,27.3833,81.9833,22.92,27,95,3.04,IN,1680126380
472,ulladulla,-35.35,150.4667,14.32,72,26,2.1,AU,1680126380
473,starkville,33.4504,-88.8184,18.69,36,49,0.76,US,1680126084
474,vauvert,43.7,4.2833,14.09,94,100,4.63,FR,1680126381
475,hobyo,5.3505,48.5268,27.35,75,24,3.47,SO,1680126381
476,esperance,-33.8667,121.9,13.59,90,100,3.06,AU,1680126381
477,pombas,17.1503,-25.0201,23.88,69,46,5.46,CV,1680126381
478,tinskoy,56.1525,96.9161,3.9,89,23,3.21,RU,1680126381
479,saint-augustin,51.226,-58.6502,0.21,86,100,3.26,CA,1680126381
480,baghdad,33.3406,44.4009,19.95,52,0,5.14,IQ,1680126098
481,sheridan,44.8333,-106.9173,5.17,68,75,2.06,US,1680126381
482,bilma,18.6853,12.9164,24.89,9,2,3.25,NE,1680126381
483,isangel,-19.55,169.2667,28.06,83,20,1.03,VU,1680126381
484,matara,5.9485,80.5353,24.45,87,72,1.89,LK,1680126239
485,naze,28.3667,129.4833,16.51,83,100,7.97,JP,1680126381
486,hay river,60.8156,-115.7999,-8.02,62,40,3.6,CA,1680126382
487,north bend,43.4065,-124.2243,14.58,68,0,7.72,US,1680126382
488,komsomolskiy,40.4272,71.7189,14.4,51,100,3.09,UZ,1680126382
489,jumla,29.2747,82.1838,5.75,79,100,1.68,NP,1680126382
490,oum hadjer,13.2954,19.6966,32.69,15,98,3.91,TD,1680126382
491,abdulino,53.7,53.6667,0.94,78,72,6.91,RU,1680126382
492,dothan,31.2232,-85.3905,17.58,53,0,2.06,US,1680126158
493,clarksburg,39.2807,-80.3445,14.25,31,0,6.17,US,1680126382
494,sola,-13.8833,167.55,27.37,83,40,0.0,VU,1680126382
495,wasilla,61.5814,-149.4394,3.45,65,0,0.89,US,1680126382
496,mana,5.6592,-53.7767,25.33,84,73,4.94,GF,1680126382
497,kjollefjord,70.9457,27.3465,-0.97,100,100,10.8,NO,1680126382
498,dunedin,-45.8742,170.5036,9.89,78,68,3.83,NZ,1680126318
499,camacha,33.0833,-16.3333,17.68,88,20,3.6,PT,1680126383
500,glasgow,55.8652,-4.2576,11.56,89,75,4.63,GB,1680126170
501,batsfjord,70.6345,29.7185,-1.04,100,100,9.26,NO,1680126383
502,malayal,7.208,121.942,23.89,79,98,4.61,PH,1680126383
503,korla,41.7597,86.1469,14.27,18,98,5.33,CN,1680126383
504,marrakesh,31.6315,-8.0083,26.04,24,53,1.03,MA,1680126383
505,lanzhou,36.0564,103.7922,10.13,54,100,5.27,CN,1680126383
506,honningsvag,70.9821,25.9704,-1.14,93,100,7.2,NO,1680126383
507,mecca,21.4267,39.8261,25.99,45,53,1.15,SA,1680126383
508,horsham,51.064,-0.3272,12.47,91,75,7.2,GB,1680126383
509,susanville,40.4163,-120.653,4.34,79,100,2.57,US,1680126384
510,tongliao,43.6125,122.2653,7.45,47,49,3.09,CN,1680126384
511,shimoda,34.6667,138.95,11.17,73,1,1.28,JP,1680126384
512,westport,41.1415,-73.3579,12.39,47,0,3.58,US,1680126345
513,andenes,69.3143,16.1194,-4.01,74,75,3.09,NO,1680126384
514,hami,42.8,93.45,13.98,10,88,3.74,CN,1680126384
515,koslan,63.4564,48.8989,-5.12,89,97,4.49,RU,1680126384
516,mchinji,-13.7984,32.8802,16.57,99,75,1.2,MW,1680126384
517,mlonggo,-6.5333,110.7,24.61,90,100,0.39,ID,1680126384
518,martapura,-3.4167,114.85,25.05,88,75,6.17,ID,1680126384
519,horodyshche,49.2849,31.4451,-0.98,81,90,4.99,UA,1680126384
520,merritt,50.1123,-120.7942,6.28,81,100,0.93,CA,1680126384
521,kudahuvadhoo,2.6708,72.8944,27.48,75,8,3.51,MV,1680126385
522,dicabisagan,17.0818,122.4157,21.67,85,72,0.78,PH,1680126385
523,madison,34.7334,-86.5667,18.72,26,0,1.54,US,1680125835
524,seoul,37.5683,126.9778,3.78,75,0,1.03,KR,1680126146
525,concepcion del uruguay,-32.4825,-58.2372,25.55,86,51,0.89,AR,1680126385
526,tawang,27.5833,91.8667,2.87,90,100,0.56,IN,1680126385
527,keflavik,64.0049,-22.5624,4.95,93,100,6.17,IS,1680126385
528,greenfield,42.9614,-88.0126,3.39,29,20,4.63,US,1680126385
529,yeppoon,-23.1333,150.7333,23.88,78,63,2.11,AU,1680126385
530,tucuman,-26.8241,-65.2226,32.0,58,40,2.57,AR,1680126123
531,bambanglipuro,-7.95,110.2833,24.78,89,97,0.86,ID,1680126385
532,grand gaube,-20.0064,57.6608,27.22,78,58,1.34,MU,1680126385
533,coihaique,-45.5752,-72.0662,6.97,87,100,1.54,CL,1680126385
534,pagudpud,18.5616,120.7868,26.44,78,0,2.28,PH,1680126385
535,bardiyah,31.7561,25.0865,13.64,54,4,6.11,LY,1680126385
536,harper,4.375,-7.7169,25.49,91,59,1.2,LR,1680126386
537,wajid,3.8093,43.2471,27.95,61,96,5.5,SO,1680126386
538,duncan,34.5023,-97.9578,19.12,41,0,6.17,US,1680126364
539,college,64.8569,-147.8028,0.6,46,75,1.03,US,1680126386
540,nangomba,-10.9,38.5,22.09,98,100,0.57,TZ,1680126386
541,celestun,20.8667,-90.4,25.48,80,100,8.13,MX,1680126386
542,verkhoyansk,67.5447,133.385,-26.4,100,95,0.44,RU,1680126386
543,coolum beach,-26.5333,153.1,24.5,90,100,0.9,AU,1680126386
544,gatton,-27.55,152.2833,20.52,92,100,1.23,AU,1680126386
545,rocha,-34.4833,-54.3333,21.31,85,32,5.48,UY,1680126386
546,hargeysa,9.56,44.065,22.79,63,71,2.68,SO,1680126229
547,ambon,-3.6954,128.1814,24.08,94,40,2.06,ID,1680126386
548,raton,36.9034,-104.4391,19.19,12,0,7.2,US,1680126386
549,guilin,25.2819,110.2864,13.06,91,100,1.38,CN,1680126387
550,kuytun,54.3419,101.5036,0.14,86,9,1.74,RU,1680126387
551,urubicha,-15.3833,-62.95,25.52,88,96,0.62,BO,1680126387
552,darab,28.7519,54.5444,15.96,46,0,1.58,IR,1680126387
553,montivilliers,49.5452,0.1877,14.79,77,78,10.29,FR,1680126387
554,tunduma,-9.3,32.7667,13.99,97,98,1.08,TZ,1680126387
555,wanning,18.8003,110.3967,22.87,95,71,0.7,CN,1680126387
556,taltal,-25.4,-70.4833,19.42,84,60,3.18,CL,1680126021
557,bowen,-20.0167,148.2333,27.19,72,25,1.02,AU,1680126387
558,boa vista,2.8197,-60.6733,32.99,40,75,3.6,BR,1680126387
559,goya,-29.14,-59.2626,30.29,51,99,1.92,AR,1680125943
560,krasnoselkup,65.7,82.4667,-17.62,97,96,3.85,RU,1680126387
561,byron bay,-28.65,153.6167,21.51,95,100,1.04,AU,1680126387
562,aras,42.5617,-2.356,13.75,58,0,2.06,ES,1680126387
563,constantine,36.365,6.6147,12.67,47,0,2.57,DZ,1680126313
